city,city_ascii,lat,lng,country,iso2,id
Tokyo,Tokyo,35.6839,139.7744,Japan,JP,1392685764
Jakarta,Jakarta,-6.2146,106.8451,Indonesia,ID,1360771077
Delhi,Delhi,28.6667,77.2167,India,IN,1356872604
Manila,Manila,14.6000,120.9833,Philippines,PH,1608618140
São Paulo,Sao Paulo,-23.5504,-46.6339,Brazil,BR,1076532519
Seoul,Seoul,37.5600,126.9900,South Korea,KR,1410836482
Mumbai,Mumbai,19.0758,72.8775,India,IN,1356226629
Shanghai,Shanghai,31.1667,121.4667,China,CN,1156073548
Mexico City,Mexico City,19.4333,-99.1333,Mexico,MX,1484247881
Guangzhou,Guangzhou,23.1288,113.2590,China,CN,1156237133
Cairo,Cairo,30.0444,31.2358,Egypt,EG,1818253931
Beijing,Beijing,39.9040,116.4075,China,CN,1156228865
New York,New York,40.6943,-73.9249,United States,US,1840034016
Kolkāta,Kolkata,22.5727,88.3639,India,IN,1356060520
Moscow,Moscow,55.7558,37.6178,Russia,RU,1643318494
Bangkok,Bangkok,13.7500,100.5167,Thailand,TH,1764068610
Dhaka,Dhaka,23.7289,90.3944,Bangladesh,BD,1050529279
Buenos Aires,Buenos Aires,-34.5997,-58.3819,Argentina,AR,1032717330
Ōsaka,Osaka,34.7520,135.4582,Japan,JP,1392419823
Lagos,Lagos,6.4500,3.4000,Nigeria,NG,1566593751
Istanbul,Istanbul,41.0100,28.9603,Turkey,TR,1792756324
Karachi,Karachi,24.8600,67.0100,Pakistan,PK,1586129469
Kinshasa,Kinshasa,-4.3317,15.3139,Congo (Kinshasa),CD,1180000363
Shenzhen,Shenzhen,22.5350,114.0540,China,CN,1156158707
Bangalore,Bangalore,12.9791,77.5913,India,IN,1356410365
Ho Chi Minh City,Ho Chi Minh City,10.8167,106.6333,Vietnam,VN,1704774326
Tehran,Tehran,35.7000,51.4167,Iran,IR,1364305026
Los Angeles,Los Angeles,34.1139,-118.4068,United States,US,1840020491
Rio de Janeiro,Rio de Janeiro,-22.9083,-43.1964,Brazil,BR,1076887657
Chengdu,Chengdu,30.6600,104.0633,China,CN,1156421555
Baoding,Baoding,38.8671,115.4845,China,CN,1156256829
Chennai,Chennai,13.0825,80.2750,India,IN,1356374944
Lahore,Lahore,31.5497,74.3436,Pakistan,PK,1586801463
London,London,51.5072,-0.1275,United Kingdom,GB,1826645935
Paris,Paris,48.8566,2.3522,France,FR,1250015082
Tianjin,Tianjin,39.1467,117.2056,China,CN,1156174046
Linyi,Linyi,35.0606,118.3425,China,CN,1156086320
Shijiazhuang,Shijiazhuang,38.0422,114.5086,China,CN,1156217541
Zhengzhou,Zhengzhou,34.7492,113.6605,China,CN,1156183137
Nanyang,Nanyang,32.9987,112.5292,China,CN,1156192287
Hyderābād,Hyderabad,17.3617,78.4747,India,IN,1356871768
Wuhan,Wuhan,30.5872,114.2881,China,CN,1156117184
Handan,Handan,36.6116,114.4894,China,CN,1156957080
Nagoya,Nagoya,35.1167,136.9333,Japan,JP,1392407472
Weifang,Weifang,36.7167,119.1000,China,CN,1156912965
Lima,Lima,-12.0600,-77.0375,Peru,PE,1604728603
Zhoukou,Zhoukou,33.6250,114.6418,China,CN,1156272098
Luanda,Luanda,-8.8383,13.2344,Angola,AO,1024949724
Ganzhou,Ganzhou,25.8292,114.9336,China,CN,1156832475
Tongshan,Tongshan,34.2610,117.1859,China,CN,1156241678
Kuala Lumpur,Kuala Lumpur,3.1478,101.6953,Malaysia,MY,1458988644
Chicago,Chicago,41.8373,-87.6862,United States,US,1840000494
Heze,Heze,35.2333,115.4333,China,CN,1156225008
Chongqing,Chongqing,29.5500,106.5069,China,CN,1156936556
Hanoi,Hanoi,21.0245,105.8412,Vietnam,VN,1704413791
Fuyang,Fuyang,32.8986,115.8045,China,CN,1156248008
Changsha,Changsha,28.1987,112.9709,China,CN,1156961497
Dongguan,Dongguan,23.0475,113.7493,China,CN,1156478242
Jining,Jining,35.4000,116.5667,China,CN,1156504601
Jinan,Jinan,36.6667,116.9833,China,CN,1156972469
Pune,Pune,18.5196,73.8553,India,IN,1356081074
Foshan,Foshan,23.0292,113.1056,China,CN,1156738403
Bogotá,Bogota,4.6126,-74.0705,Colombia,CO,1170483426
Ahmedabad,Ahmedabad,23.0300,72.5800,India,IN,1356304381
Nanjing,Nanjing,32.0500,118.7667,China,CN,1156644065
Changchun,Changchun,43.9000,125.2000,China,CN,1156078103
Tangshan,Tangshan,39.6292,118.1742,China,CN,1156904299
Cangzhou,Cangzhou,38.3037,116.8452,China,CN,1156698069
Dar es Salaam,Dar es Salaam,-6.8000,39.2833,Tanzania,TZ,1834843853
Hefei,Hefei,31.8639,117.2808,China,CN,1156332710
Hong Kong,Hong Kong,22.3069,114.1831,Hong Kong,HK,1344982653
Shaoyang,Shaoyang,27.2418,111.4725,China,CN,1156310366
Zhanjiang,Zhanjiang,21.1967,110.4031,China,CN,1156502170
Shangqiu,Shangqiu,34.4259,115.6467,China,CN,1156805441
Nantong,Nantong,31.9829,120.8873,China,CN,1156045365
Yancheng,Yancheng,33.3936,120.1339,China,CN,1156995410
Nanning,Nanning,22.8192,108.3150,China,CN,1156605439
Hengyang,Hengyang,26.8968,112.5857,China,CN,1156696884
Zhumadian,Zhumadian,32.9773,114.0253,China,CN,1156184822
Shenyang,Shenyang,41.8039,123.4258,China,CN,1156309382
Xingtai,Xingtai,37.0659,114.4753,China,CN,1156294952
Xi’an,Xi'an,34.2667,108.9000,China,CN,1156244079
Santiago,Santiago,-33.4500,-70.6667,Chile,CL,1152554349
Yantai,Yantai,37.3997,121.2664,China,CN,1156932948
Riyadh,Riyadh,24.6500,46.7100,Saudi Arabia,SA,1682999334
Luoyang,Luoyang,34.6587,112.4245,China,CN,1156069315
Kunming,Kunming,25.0433,102.7061,China,CN,1156477539
Shangrao,Shangrao,28.4419,117.9633,China,CN,1156405492
Hangzhou,Hangzhou,30.2500,120.1675,China,CN,1156275243
Bijie,Bijie,27.3019,105.2863,China,CN,1156018927
Quanzhou,Quanzhou,24.9139,118.5858,China,CN,1156829655
Miami,Miami,25.7839,-80.2102,United States,US,1840015149
Wuxi,Wuxi,31.5667,120.2833,China,CN,1156019650
Huanggang,Huanggang,30.4500,114.8750,China,CN,1156200037
Maoming,Maoming,21.6618,110.9178,China,CN,1156568722
Nanchong,Nanchong,30.7991,106.0784,China,CN,1156762337
Zunyi,Zunyi,27.7050,106.9336,China,CN,1156539782
Qujing,Qujing,25.5102,103.8029,China,CN,1156747998
Baghdad,Baghdad,33.3500,44.4167,Iraq,IQ,1368596238
Xinyang,Xinyang,32.1264,114.0672,China,CN,1156273453
Jieyang,Jieyang,23.5533,116.3649,China,CN,1156260378
Khartoum,Khartoum,15.6031,32.5265,Sudan,SD,1729268475
Madrid,Madrid,40.4167,-3.7167,Spain,ES,1724616994
Allahābād,Allahabad,25.4500,81.8500,India,IN,1356718332
Yulin,Yulin,22.6293,110.1507,China,CN,1156901312
Changde,Changde,29.0397,111.6839,China,CN,1156449091
Liaocheng,Liaocheng,36.4500,115.9833,China,CN,1156006600
Qingdao,Qingdao,36.1167,120.4000,China,CN,1156112588
Dallas,Dallas,32.7936,-96.7662,United States,US,1840019440
Nangandao,Nangandao,35.2992,113.8851,China,CN,1156127660
Xiangyang,Xiangyang,32.0654,112.1531,China,CN,1156107325
Philadelphia,Philadelphia,40.0077,-75.1339,United States,US,1840000673
Giza,Giza,29.9870,31.2118,Egypt,EG,1818925479
Lu’an,Lu'an,31.7542,116.5078,China,CN,1156499624
Zhaotong,Zhaotong,27.3328,103.7144,China,CN,1156924687
Yichun,Yichun,27.8041,114.3830,China,CN,1156229590
Dezhou,Dezhou,37.4513,116.3105,China,CN,1156524080
Nairobi,Nairobi,-1.2864,36.8172,Kenya,KE,1404000661
Nanchang,Nanchang,28.6842,115.8872,China,CN,1156198892
Tai’an,Tai'an,36.2001,117.0809,China,CN,1156095188
Dazhou,Dazhou,31.2152,107.4947,China,CN,1156834076
Houston,Houston,29.7863,-95.3889,United States,US,1840020925
Guadalajara,Guadalajara,20.6767,-103.3475,Mexico,MX,1484950208
Yongzhou,Yongzhou,26.4515,111.5953,China,CN,1156694479
Atlanta,Atlanta,33.7627,-84.4224,United States,US,1840013660
Rangoon,Rangoon,16.7950,96.1600,Myanmar,MM,1104616656
Toronto,Toronto,43.7417,-79.3733,Canada,CA,1124279679
Suihua,Suihua,46.6384,126.9808,China,CN,1156235493
Saint Petersburg,Saint Petersburg,59.9500,30.3167,Russia,RU,1643616350
Washington,Washington,38.9047,-77.0163,United States,US,1840006060
Qiqihar,Qiqihar,47.3398,123.9512,China,CN,1156775905
Suzhou,Suzhou,33.6333,116.9683,China,CN,1156871297
Shantou,Shantou,23.3735,116.6941,China,CN,1156457499
Weinan,Weinan,34.4996,109.4684,China,CN,1156903687
Changzhou,Changzhou,31.8122,119.9692,China,CN,1156185511
Singapore,Singapore,1.3000,103.8000,Singapore,SG,1702341327
Fuzhou,Fuzhou,26.0769,119.2917,China,CN,1156188037
Pudong,Pudong,31.2231,121.5397,China,CN,1156644508
Belo Horizonte,Belo Horizonte,-19.9281,-43.9419,Brazil,BR,1076967355
Zhangzhou,Zhangzhou,24.5093,117.6612,China,CN,1156241637
Yuncheng,Yuncheng,35.0304,110.9980,China,CN,1156705644
Suzhou,Suzhou,31.3040,120.6164,China,CN,1156029196
Xianyang,Xianyang,34.3500,108.7167,China,CN,1156120117
Guilin,Guilin,25.2667,110.2833,China,CN,1156235364
Taizhou,Taizhou,32.4831,119.9000,China,CN,1156119229
Abidjan,Abidjan,5.3364,-4.0267,Côte d'Ivoire,CI,1384207980
Huaihua,Huaihua,27.5494,109.9592,China,CN,1156353465
Ji’an,Ji'an,27.1172,114.9793,China,CN,1156278215
Xiaoganzhan,Xiaoganzhan,30.9273,113.9110,China,CN,1156002290
Pingdingshan,Pingdingshan,33.7350,113.2999,China,CN,1156735124
Jiujiang,Jiujiang,29.7048,116.0021,China,CN,1156206041
Sūrat,Surat,21.1700,72.8300,India,IN,1356758738
Guiyang,Guiyang,26.5794,106.7078,China,CN,1156932620
Alexandria,Alexandria,31.2000,29.9167,Egypt,EG,1818695837
Bozhou,Bozhou,33.8626,115.7742,China,CN,1156356860
Sydney,Sydney,-33.8650,151.2094,Australia,AU,1036074917
Huizhou,Huizhou,23.1115,114.4152,China,CN,1156203268
Huai’an,Huai'an,33.5000,119.1331,China,CN,1156634228
Chenzhou,Chenzhou,25.7989,113.0267,China,CN,1156291915
Barcelona,Barcelona,41.3825,2.1769,Spain,ES,1724594040
Anqing,Anqing,30.5000,117.0333,China,CN,1156238875
Suqian,Suqian,33.9331,118.2831,China,CN,1156212349
Boston,Boston,42.3188,-71.0846,United States,US,1840000455
Jiangmen,Jiangmen,22.5833,113.0833,China,CN,1156105613
Mianyang,Mianyang,31.4669,104.7385,China,CN,1156417758
Harbin,Harbin,45.7500,126.6333,China,CN,1156241528
Huanglongsi,Huanglongsi,34.7936,114.3403,China,CN,1156198356
Melbourne,Melbourne,-37.8136,144.9631,Australia,AU,1036533631
Zibo,Zibo,36.7831,118.0497,China,CN,1156381094
Dalian,Dalian,38.9000,121.6000,China,CN,1156175472
Hengshui,Hengshui,37.7348,115.6860,China,CN,1156803028
Yibin,Yibin,28.7596,104.6400,China,CN,1156107603
Yangzhou,Yangzhou,32.3912,119.4363,China,CN,1156818601
Timbío,Timbio,2.3528,-76.6819,Colombia,CO,1170815311
Johannesburg,Johannesburg,-26.2044,28.0416,South Africa,ZA,1710550792
Yiyang,Yiyang,28.5833,112.3333,China,CN,1156218615
Guigang,Guigang,23.0961,109.6092,China,CN,1156895251
Xinpu,Xinpu,34.5906,119.1801,China,CN,1156035381
Meizhou,Meizhou,24.2998,116.1191,China,CN,1156361028
Casablanca,Casablanca,33.5992,-7.6200,Morocco,MA,1504175315
Langfang,Langfang,39.5196,116.7006,China,CN,1156109017
Zhangjiakou,Zhangjiakou,40.8108,114.8811,China,CN,1156800221
Chifeng,Chifeng,42.2663,118.9223,China,CN,1156277458
Linfen,Linfen,36.0812,111.5087,China,CN,1156416074
Jiangguanchi,Jiangguanchi,34.0244,113.8201,China,CN,1156235735
Kabul,Kabul,34.5328,69.1658,Afghanistan,AF,1004993580
Phoenix,Phoenix,33.5722,-112.0891,United States,US,1840020568
Luzhou,Luzhou,28.8918,105.4409,China,CN,1156582079
Taiyuan,Taiyuan,37.8733,112.5425,China,CN,1156632014
Zhaoqing,Zhaoqing,23.0500,112.4667,China,CN,1156170144
Xiaoxita,Xiaoxita,30.7083,111.2803,China,CN,1156764447
Xiamen,Xiamen,24.4797,118.0819,China,CN,1156212809
Fuzhou,Fuzhou,27.9814,116.3577,China,CN,1156915325
Liuzhou,Liuzhou,24.3264,109.4281,China,CN,1156360785
Zhuzhou,Zhuzhou,27.8407,113.1469,China,CN,1156041962
Amman,Amman,31.9500,35.9333,Jordan,JO,1400522593
Jeddah,Jeddah,21.5428,39.1728,Saudi Arabia,SA,1682926944
Chuzhou,Chuzhou,32.3062,118.3115,China,CN,1156036420
Loudi,Loudi,27.7378,111.9974,China,CN,1156010654
Deyang,Deyang,31.1289,104.3950,China,CN,1156127147
Qingyuan,Qingyuan,23.6842,113.0507,China,CN,1156135890
Kano,Kano,12.0000,8.5167,Nigeria,NG,1566422868
Wuhu,Wuhu,31.3340,118.3622,China,CN,1156315512
Seattle,Seattle,47.6211,-122.3244,United States,US,1840021117
Yokohama,Yokohama,35.4333,139.6333,Japan,JP,1392118339
Binzhou,Binzhou,37.3806,118.0125,China,CN,1156564962
Baojishi,Baojishi,34.3609,107.1751,China,CN,1156101096
Zaozhuang,Zaozhuang,34.8667,117.5500,China,CN,1156796454
Neijiang,Neijiang,29.5872,105.0635,China,CN,1156516335
Baicheng,Baicheng,23.9010,106.6194,China,CN,1156981113
Berlin,Berlin,52.5167,13.3833,Germany,DE,1276451290
Anshan,Anshan,41.1066,122.9895,China,CN,1156901825
Lanzhou,Lanzhou,36.0617,103.8318,China,CN,1156280566
Puyang,Puyang,35.7639,115.0300,China,CN,1156431924
San Francisco,San Francisco,37.7562,-122.4430,United States,US,1840021543
Jiaozuo,Jiaozuo,35.2290,113.2304,China,CN,1156157854
Hechi,Hechi,24.6928,108.0850,China,CN,1156167204
Montréal,Montreal,45.5089,-73.5617,Canada,CA,1124586170
Detroit,Detroit,42.3834,-83.1024,United States,US,1840003971
Chengde,Chengde,40.9739,117.9322,China,CN,1156197800
Busan,Busan,35.1000,129.0403,South Korea,KR,1410601465
Algiers,Algiers,36.7764,3.0586,Algeria,DZ,1012973369
Hanzhong,Hanzhong,33.0794,107.0260,China,CN,1156382678
Shiyan,Shiyan,32.6351,110.7755,China,CN,1156383921
Lucknow,Lucknow,26.8470,80.9470,India,IN,1356891790
Siping,Siping,43.1715,124.3644,China,CN,1156063295
Yulinshi,Yulinshi,38.2655,109.7388,China,CN,1156280672
Changzhi,Changzhi,36.1953,113.0970,China,CN,1156057944
Qinzhou,Qinzhou,21.9500,108.6167,China,CN,1156106602
Bazhou,Bazhou,31.8576,106.7559,China,CN,1156271365
Qincheng,Qincheng,34.5809,105.7311,China,CN,1156104017
Zhongshan,Zhongshan,22.5333,113.3500,China,CN,1156579621
Suining,Suining,30.5098,105.5737,China,CN,1156655650
Leshan,Leshan,29.5854,103.7575,China,CN,1156203130
San Diego,San Diego,32.8312,-117.1225,United States,US,1840021990
Faisalabad,Faisalabad,31.4180,73.0790,Pakistan,PK,1586323916
Guang’an,Guang'an,30.4673,106.6336,China,CN,1156377302
Tongren,Tongren,27.7233,109.1885,China,CN,1156803442
Bengbu,Bengbu,32.9354,117.3531,China,CN,1156440668
Santa Cruz,Santa Cruz,-17.7892,-63.1975,Bolivia,BO,1068129363
Qinhuangdao,Qinhuangdao,39.9398,119.5881,China,CN,1156091093
Tongliao,Tongliao,43.6172,122.2640,China,CN,1156358686
Jinzhou,Jinzhou,41.1144,121.1292,China,CN,1156157151
Zhenjiang,Zhenjiang,32.2109,119.4551,China,CN,1156934125
Ürümqi,Urumqi,43.8225,87.6125,China,CN,1156051276
Heyuan,Heyuan,23.7503,114.6923,China,CN,1156665165
Jaipur,Jaipur,26.9167,75.8667,India,IN,1356293537
Xinzhou,Xinzhou,38.4178,112.7233,China,CN,1156617534
Wuzhou,Wuzhou,23.4833,111.3167,China,CN,1156620133
Addis Ababa,Addis Ababa,9.0272,38.7369,Ethiopia,ET,1231824991
Chaoyang,Chaoyang,41.5757,120.4486,China,CN,1156706927
Brasília,Brasilia,-15.7939,-47.8828,Brazil,BR,1076144436
Mashhad,Mashhad,36.3069,59.6042,Iran,IR,1364123206
Shaoguan,Shaoguan,24.8011,113.5927,China,CN,1156617066
Kuwait City,Kuwait City,29.3750,47.9800,Kuwait,KW,1414102075
Shanwei,Shanwei,22.7664,115.3331,China,CN,1156939010
Quezon City,Quezon City,14.6333,121.0333,Philippines,PH,1608974097
Minneapolis,Minneapolis,44.9635,-93.2678,United States,US,1840007830
Kyiv,Kyiv,50.4500,30.5236,Ukraine,UA,1804382913
Sanaa,Sanaa,15.3500,44.2000,Yemen,YE,1887750814
Meishan,Meishan,30.0575,103.8381,China,CN,1156185501
Guatemala City,Guatemala City,14.6099,-90.5252,Guatemala,GT,1320197916
Incheon,Incheon,37.4639,126.6486,South Korea,KR,1410160313
Ningde,Ningde,26.6617,119.5228,China,CN,1156909802
Tampa,Tampa,27.9942,-82.4451,United States,US,1840015982
Daqing,Daqing,46.5979,125.0080,China,CN,1156403962
Putian,Putian,25.4394,119.0103,China,CN,1156811601
Bandung,Bandung,-6.9500,107.5667,Indonesia,ID,1360313023
Surabaya,Surabaya,-7.2458,112.7378,Indonesia,ID,1360484663
Salvador,Salvador,-12.9708,-38.5108,Brazil,BR,1076923789
Denver,Denver,39.7621,-104.8759,United States,US,1840018789
Rome,Rome,41.8931,12.4828,Italy,IT,1380382862
La Paz,La Paz,-16.4942,-68.1475,Bolivia,BO,1068000064
Hohhot,Hohhot,40.8151,111.6629,China,CN,1156210167
Xiangtan,Xiangtan,27.8431,112.9228,China,CN,1156195684
Pyongyang,Pyongyang,39.0300,125.7300,North Korea,KP,1408738594
Taichung,Taichung,24.1500,120.6667,Taiwan,TW,1158689622
Weihai,Weihai,37.5000,122.1000,China,CN,1156473300
Rizhao,Rizhao,35.4164,119.4331,China,CN,1156032841
Mudanjiang,Mudanjiang,44.5861,129.5997,China,CN,1156249698
Kaohsiung,Kaohsiung,22.6167,120.3000,Taiwan,TW,1158331334
Guayaquil,Guayaquil,-2.1900,-79.8875,Ecuador,EC,1218802178
Tieling,Tieling,42.2841,123.8365,China,CN,1156089994
Cawnpore,Cawnpore,26.4725,80.3311,India,IN,1356575238
Dingxi,Dingxi,35.5806,104.6263,China,CN,1156518274
Taipei,Taipei,25.0478,121.5319,Taiwan,TW,1158881289
Nanping,Nanping,26.6448,118.1728,China,CN,1156927445
Zigong,Zigong,29.3498,104.7645,China,CN,1156023354
Chaozhou,Chaozhou,23.6700,116.6300,China,CN,1156549118
Baotou,Baotou,40.6562,109.8345,China,CN,1156032751
Gulou,Gulou,26.0819,119.2981,China,CN,1156680279
Longyan,Longyan,25.0881,117.0244,China,CN,1156012979
Ankang,Ankang,32.6877,109.0235,China,CN,1156255711
Baoshan,Baoshan,25.1211,99.1690,China,CN,1156546994
Huludao,Huludao,40.7094,120.8378,China,CN,1156580218
Antananarivo,Antananarivo,-18.9386,47.5214,Madagascar,MG,1450978461
Yanjiang,Yanjiang,30.1256,104.6397,China,CN,1156217114
Chattogram,Chattogram,22.3350,91.8325,Bangladesh,BD,1050830722
Santo Domingo,Santo Domingo,18.4764,-69.8933,Dominican Republic,DO,1214636202
Sanming,Sanming,26.2658,117.6302,China,CN,1156294429
Longba,Longba,33.5350,105.3490,China,CN,1156633259
Brooklyn,Brooklyn,40.6501,-73.9496,United States,US,1840034030
Yangjiang,Yangjiang,21.8556,111.9627,China,CN,1156123172
Jiamusi,Jiamusi,46.8081,130.3653,China,CN,1156350864
Ibadan,Ibadan,7.3964,3.9167,Nigeria,NG,1566366407
Luohe,Luohe,33.5830,114.0109,China,CN,1156330876
Lincang,Lincang,23.8864,100.0871,China,CN,1156044130
Medellín,Medellin,6.2447,-75.5748,Colombia,CO,1170680389
Xuanzhou,Xuanzhou,30.9475,118.7518,China,CN,1156424311
Yunfu,Yunfu,22.9242,112.0353,China,CN,1156057251
Dubai,Dubai,25.2697,55.3094,United Arab Emirates,AE,1784736618
Mirzāpur,Mirzapur,25.1500,82.5800,India,IN,1356427908
Tashkent,Tashkent,41.3000,69.2667,Uzbekistan,UZ,1860331871
Guangyuan,Guangyuan,32.4353,105.8398,China,CN,1156084562
Cali,Cali,3.4400,-76.5197,Colombia,CO,1170417589
Huangshi,Huangshi,30.2018,115.0326,China,CN,1156234290
Ouagadougou,Ouagadougou,12.3686,-1.5275,Burkina Faso,BF,1854029208
Daegu,Daegu,35.8667,128.6000,South Korea,KR,1410095252
Fortaleza,Fortaleza,-3.7275,-38.5275,Brazil,BR,1076567885
Yaoundé,Yaounde,3.8578,11.5181,Cameroon,CM,1120298240
Douala,Douala,4.0500,9.7000,Cameroon,CM,1120494607
Jilin,Jilin,43.8519,126.5481,China,CN,1156646448
Dandong,Dandong,40.1167,124.3833,China,CN,1156178316
Lianshan,Lianshan,40.7523,120.8280,China,CN,1156046704
Yingkou,Yingkou,40.6653,122.2297,China,CN,1156257074
Nāgpur,Nagpur,21.1539,79.0831,India,IN,1356365743
Omdurman,Omdurman,15.6167,32.4800,Sudan,SD,1729912179
Bekasi,Bekasi,-6.2333,107.0000,Indonesia,ID,1360006015
Ghāziābād,Ghaziabad,28.6667,77.4167,India,IN,1356691871
Yuxi,Yuxi,24.3495,102.5432,China,CN,1156682309
Brisbane,Brisbane,-27.4678,153.0281,Australia,AU,1036192929
Anshun,Anshun,26.2456,105.9340,China,CN,1156415948
Depok,Depok,-6.3940,106.8225,Indonesia,ID,1360962899
Shangzhou,Shangzhou,33.8680,109.9244,China,CN,1156091241
Huainan,Huainan,32.4831,117.0164,China,CN,1156877299
Kuaidamao,Kuaidamao,41.7302,125.9471,China,CN,1156106507
Accra,Accra,5.6037,-0.1870,Ghana,GH,1288299415
Fukuoka,Fukuoka,33.6000,130.4167,Japan,JP,1392576294
Jincheng,Jincheng,35.4906,112.8483,China,CN,1156163376
Vancouver,Vancouver,49.2500,-123.1000,Canada,CA,1124825478
Tangerang,Tangerang,-6.1783,106.6319,Indonesia,ID,1360002844
Sanmenxia,Sanmenxia,34.7736,111.1950,China,CN,1156529682
Laibin,Laibin,23.7333,109.2333,China,CN,1156925734
Queens,Queens,40.7498,-73.7976,United States,US,1840034002
Qinbaling,Qinbaling,35.7278,107.6400,China,CN,1156032582
Xining,Xining,36.6239,101.7787,China,CN,1156081448
Ma’anshan,Ma'anshan,31.6858,118.5101,China,CN,1156847452
Yan’an,Yan'an,36.5952,109.4863,China,CN,1156546342
Baku,Baku,40.3667,49.8352,Azerbaijan,AZ,1031946365
Gaoping,Gaoping,30.7824,106.1281,China,CN,1156522457
Harare,Harare,-17.8292,31.0522,Zimbabwe,ZW,1716196799
Havana,Havana,23.1367,-82.3589,Cuba,CU,1192752771
Phnom Penh,Phnom Penh,11.5696,104.9210,Cambodia,KH,1116260534
Ningbo,Ningbo,29.8750,121.5492,China,CN,1156170787
Mogadishu,Mogadishu,2.0408,45.3425,Somalia,SO,1706893395
Puning,Puning,23.2993,116.1586,China,CN,1156756494
Medan,Medan,3.6667,98.6667,Indonesia,ID,1360543171
Huaibei,Huaibei,33.9562,116.7890,China,CN,1156142626
Qingyang,Qingyang,24.8141,118.5792,China,CN,1156273372
Riverside,Riverside,33.9381,-117.3948,United States,US,1840020551
Baltimore,Baltimore,39.3051,-76.6144,United States,US,1840001592
Haiphong,Haiphong,20.8000,106.6667,Vietnam,VN,1704000623
Las Vegas,Las Vegas,36.2333,-115.2654,United States,US,1840020364
Chongzuo,Chongzuo,22.4167,107.3667,China,CN,1156438670
Rawalpindi,Rawalpindi,33.6007,73.0679,Pakistan,PK,1586344001
Kumasi,Kumasi,6.6833,-1.6167,Ghana,GH,1288181103
Portland,Portland,45.5372,-122.6500,United States,US,1840019941
Vadodara,Vadodara,22.3000,73.2000,India,IN,1356705249
Hezhou,Hezhou,24.4164,111.5478,China,CN,1156459799
Pingliang,Pingliang,35.5412,106.6819,China,CN,1156216904
San Antonio,San Antonio,29.4658,-98.5253,United States,US,1840022220
Perth,Perth,-31.9522,115.8589,Australia,AU,1036178956
Vishākhapatnam,Vishakhapatnam,17.7333,83.3167,India,IN,1356692563
Shengli,Shengli,37.4500,118.4667,China,CN,1156672254
Gujranwala,Gujranwala,32.1500,74.1833,Pakistan,PK,1586400472
Baicheng,Baicheng,45.6148,122.8320,China,CN,1156435764
Fushun,Fushun,41.8708,123.8917,China,CN,1156857743
St. Louis,St. Louis,38.6358,-90.2451,United States,US,1840001651
Bamako,Bamako,12.6458,-7.9922,Mali,ML,1466965925
Quito,Quito,-0.2200,-78.5125,Ecuador,EC,1218441993
Minsk,Minsk,53.9022,27.5618,Belarus,BY,1112348503
Indore,Indore,22.7206,75.8472,India,IN,1356402812
Yinchuan,Yinchuan,38.4795,106.2254,China,CN,1156359072
Kananga,Kananga,-5.8961,22.4167,Congo (Kinshasa),CD,1180172460
Peshawar,Peshawar,34.0000,71.5000,Pakistan,PK,1586851102
Sapporo,Sapporo,43.0621,141.3544,Japan,JP,1392000195
Eşfahān,Esfahan,32.6447,51.6675,Iran,IR,1364023865
Caracas,Caracas,10.5000,-66.9333,Venezuela,VE,1862748204
Pingxiang,Pingxiang,27.6333,113.8500,China,CN,1156066465
Aleppo,Aleppo,36.2000,37.1500,Syria,SY,1760366651
Tijuana,Tijuana,32.5250,-117.0333,Mexico,MX,1484708778
Almaty,Almaty,43.2500,76.9000,Kazakhstan,KZ,1398351701
Vienna,Vienna,48.2083,16.3725,Austria,AT,1040261752
Thāne,Thane,19.1800,72.9633,India,IN,1356681152
Sacramento,Sacramento,38.5667,-121.4683,United States,US,1840021491
Blantyre,Blantyre,-15.7861,35.0058,Malawi,MW,1454145012
Tainan,Tainan,22.9833,120.1833,Taiwan,TW,1158061376
Zhuhai,Zhuhai,22.2769,113.5678,China,CN,1156722242
Bucharest,Bucharest,44.4000,26.0833,Romania,RO,1642414442
Curitiba,Curitiba,-25.4297,-49.2719,Brazil,BR,1076701712
Multan,Multan,30.1978,71.4711,Pakistan,PK,1586256291
Xiping,Xiping,40.0820,113.2981,China,CN,1156898522
Ecatepec,Ecatepec,19.6097,-99.0600,Mexico,MX,1484003694
Jixi,Jixi,45.2937,130.9650,China,CN,1156393765
Saidu Sharif,Saidu Sharif,34.7500,72.3572,Pakistan,PK,1586619596
Liaoyang,Liaoyang,41.2643,123.1772,China,CN,1156202749
Hamburg,Hamburg,53.5500,10.0000,Germany,DE,1276041799
Meru,Meru,0.0500,37.6500,Kenya,KE,1404588252
Brazzaville,Brazzaville,-4.2667,15.2833,Congo (Brazzaville),CG,1178340306
Orlando,Orlando,28.4772,-81.3369,United States,US,1840015099
Fuxin,Fuxin,42.0127,121.6486,China,CN,1156141954
Wuwei,Wuwei,37.9278,102.6329,China,CN,1156760291
Manaus,Manaus,-3.1000,-60.0167,Brazil,BR,1076607274
Bhopāl,Bhopal,23.2500,77.4167,India,IN,1356734039
San Jose,San Jose,37.3019,-121.8486,United States,US,1840021570
Warsaw,Warsaw,52.2300,21.0111,Poland,PL,1616024847
Lubumbashi,Lubumbashi,-11.6697,27.4581,Congo (Kinshasa),CD,1180506234
Davao,Davao,7.0667,125.6000,Philippines,PH,1608906877
Haikou,Haikou,20.0200,110.3200,China,CN,1156183327
Damascus,Damascus,33.5131,36.2919,Syria,SY,1760685964
Shuyangzha,Shuyangzha,34.1299,118.7734,China,CN,1156051957
Brussels,Brussels,50.8353,4.3314,Belgium,BE,1056469830
Lusaka,Lusaka,-15.4167,28.2833,Zambia,ZM,1894157390
Hyderabad City,Hyderabad City,25.3792,68.3683,Pakistan,PK,1586185019
Budapest,Budapest,47.4983,19.0408,Hungary,HU,1348611435
Shuozhou,Shuozhou,39.3408,112.4292,China,CN,1156227167
Cleveland,Cleveland,41.4767,-81.6804,United States,US,1840000596
Benxi,Benxi,41.2920,123.7610,China,CN,1156097909
Baiyin,Baiyin,36.5448,104.1766,China,CN,1156140738
Pittsburgh,Pittsburgh,40.4396,-79.9762,United States,US,1840001254
Patna,Patna,25.6100,85.1414,India,IN,1356821429
Mosul,Mosul,36.3667,43.1167,Iraq,IQ,1368194914
Caloocan City,Caloocan City,14.6500,120.9667,Philippines,PH,1608897690
Austin,Austin,30.3004,-97.7522,United States,US,1840019590
Sanzhou,Sanzhou,30.8200,108.4000,China,CN,1156025536
Beihai,Beihai,21.4667,109.1000,China,CN,1156421449
Mecca,Mecca,21.4225,39.8261,Saudi Arabia,SA,1682169241
Heihe,Heihe,50.2458,127.4886,China,CN,1156339225
Jingdezhen,Jingdezhen,29.2942,117.2036,China,CN,1156038165
Conakry,Conakry,9.5380,-13.6773,Guinea,GN,1324568159
Kampala,Kampala,0.3136,32.5811,Uganda,UG,1800406299
Cincinnati,Cincinnati,39.1413,-84.5061,United States,US,1840003814
Recife,Recife,-8.0539,-34.8808,Brazil,BR,1076137337
Yushan,Yushan,31.3867,120.9766,China,CN,1156245000
Zhongli,Zhongli,24.9650,121.2168,Taiwan,TW,1158025380
Kansas City,Kansas City,39.1239,-94.5541,United States,US,1840008535
Manhattan,Manhattan,40.7834,-73.9662,United States,US,1840034000
Bilāspur,Bilaspur,22.1500,82.0167,India,IN,1356820491
Semarang,Semarang,-6.9667,110.4167,Indonesia,ID,1360745537
Ludhiāna,Ludhiana,30.9083,75.8486,India,IN,1356929498
Novosibirsk,Novosibirsk,55.0333,82.9167,Russia,RU,1643399240
Chengtangcun,Chengtangcun,35.0833,117.1500,China,CN,1156883901
Āgra,Agra,27.1724,78.0131,India,IN,1356187395
Karaj,Karaj,35.8327,50.9915,Iran,IR,1364258511
Wenzhou,Wenzhou,27.9991,120.6561,China,CN,1156188829
Indianapolis,Indianapolis,39.7771,-86.1458,United States,US,1840030084
León de los Aldama,Leon de los Aldama,21.1167,-101.6833,Mexico,MX,1484811199
Puebla,Puebla,19.0333,-98.1833,Mexico,MX,1484416394
Kalyān,Kalyan,19.2502,73.1602,India,IN,1356172246
Madurai,Madurai,9.9197,78.1194,India,IN,1356257289
Mbuji-Mayi,Mbuji-Mayi,-6.1209,23.5967,Congo (Kinshasa),CD,1180399586
Hebi,Hebi,35.7497,114.2887,China,CN,1156114258
Shīrāz,Shiraz,29.6100,52.5425,Iran,IR,1364432238
Jamshedpur,Jamshedpur,22.8000,86.1833,India,IN,1356501259
Columbus,Columbus,39.9862,-82.9850,United States,US,1840003760
Tabrīz,Tabriz,38.0833,46.2833,Iran,IR,1364141756
Maracaibo,Maracaibo,10.6333,-71.6333,Venezuela,VE,1862072711
Kawasaki,Kawasaki,35.5167,139.7000,Japan,JP,1392003356
Aba,Aba,5.1167,7.3667,Nigeria,NG,1566262000
Palembang,Palembang,-2.9833,104.7644,Indonesia,ID,1360902897
Zhangjiajie,Zhangjiajie,29.1255,110.4844,China,CN,1156072884
Kōbe,Kobe,34.6913,135.1830,Japan,JP,1392978082
Charlotte,Charlotte,35.2080,-80.8304,United States,US,1840014557
Changshu,Changshu,31.6500,120.7333,China,CN,1156901538
Lianjiang,Lianjiang,21.6146,110.2794,China,CN,1156944106
Ximeicun,Ximeicun,24.9633,118.3811,China,CN,1156173813
Jianguang,Jianguang,28.1958,115.7833,China,CN,1156545200
Yucheng,Yucheng,29.9888,103.0007,China,CN,1156817119
Belém,Belem,-1.4558,-48.5039,Brazil,BR,1076646823
Guiping,Guiping,23.4000,110.0833,China,CN,1156165517
Leizhou,Leizhou,20.9147,110.0806,China,CN,1156863840
Gwangju,Gwangju,35.1667,126.9167,South Korea,KR,1410000087
Munich,Munich,48.1375,11.5750,Germany,DE,1276692352
Nāsik,Nasik,20.0000,73.7833,India,IN,1356562598
Porto Alegre,Porto Alegre,-30.0328,-51.2300,Brazil,BR,1076658221
Valencia,Valencia,10.1667,-68.0000,Venezuela,VE,1862309871
Onitsha,Onitsha,6.1667,6.7833,Nigeria,NG,1566593483
Abu Dhabi,Abu Dhabi,24.4511,54.3969,United Arab Emirates,AE,1784176710
Virginia Beach,Virginia Beach,36.7335,-76.0435,United States,US,1840003871
Daejeon,Daejeon,36.3510,127.3850,South Korea,KR,1410993875
Zapopan,Zapopan,20.7167,-103.4000,Mexico,MX,1484198680
Yekaterinburg,Yekaterinburg,56.8356,60.6128,Russia,RU,1643582706
Huazhou,Huazhou,32.6832,112.0790,China,CN,1156796734
Kyōto,Kyoto,35.0117,135.7683,Japan,JP,1392622735
Shuangyashan,Shuangyashan,46.6388,131.1545,China,CN,1156245904
Pizhou,Pizhou,34.3422,118.0097,China,CN,1156114238
El Kelaa des Srarhna,El Kelaa des Srarhna,32.0500,-7.4000,Morocco,MA,1504846488
Kharkiv,Kharkiv,50.0000,36.2292,Ukraine,UA,1804588111
Yangshe,Yangshe,31.8775,120.5512,China,CN,1156203000
Guyuan,Guyuan,36.0080,106.2782,China,CN,1156817541
Khulna,Khulna,22.8167,89.5500,Bangladesh,BD,1050667339
Muscat,Muscat,23.6139,58.5922,Oman,OM,1512035506
Bronx,Bronx,40.8501,-73.8662,United States,US,1840033999
Gaozhou,Gaozhou,21.9135,110.8481,China,CN,1156785303
Chizhou,Chizhou,30.6583,117.4849,China,CN,1156131504
Farīdābād,Faridabad,28.4353,77.3147,India,IN,1356013205
Ulaanbaatar,Ulaanbaatar,47.9214,106.9055,Mongolia,MN,1496024767
Goiânia,Goiania,-16.6806,-49.2564,Brazil,BR,1076034054
Fuqing,Fuqing,25.7232,119.3735,China,CN,1156893569
Belgrade,Belgrade,44.8167,20.4667,Serbia,RS,1688374696
Pingdu,Pingdu,36.7833,119.9556,China,CN,1156157078
Milan,Milan,45.4669,9.1900,Italy,IT,1380724377
Aurangābād,Aurangabad,19.8800,75.3200,India,IN,1356840670
Yutan,Yutan,28.3147,112.5540,China,CN,1156592042
Milwaukee,Milwaukee,43.0642,-87.9673,United States,US,1840003046
Huangshan,Huangshan,29.7132,118.3151,China,CN,1156527426
Auckland,Auckland,-36.8500,174.7833,New Zealand,NZ,1554435911
Makassar,Makassar,-5.1331,119.4136,Indonesia,ID,1360051337
Santiago,Santiago,19.4500,-70.7000,Dominican Republic,DO,1214985348
Prague,Prague,50.0833,14.4167,Czechia,CZ,1203744823
Rājkot,Rajkot,22.2969,70.7984,India,IN,1356317190
Liangshi,Liangshi,27.2578,111.7351,China,CN,1156366507
Córdoba,Cordoba,-31.4167,-64.1833,Argentina,AR,1032803249
Guarulhos,Guarulhos,-23.4667,-46.5333,Brazil,BR,1076730420
Al Başrah,Al Basrah,30.5150,47.8100,Iraq,IQ,1368714645
Saitama,Saitama,35.8617,139.6453,Japan,JP,1392017719
Juárez,Juarez,31.7386,-106.4870,Mexico,MX,1484840083
Montevideo,Montevideo,-34.8667,-56.1667,Uruguay,UY,1858107000
Xintai,Xintai,35.9100,117.7800,China,CN,1156761230
Wusong,Wusong,30.9333,117.7667,China,CN,1156264408
Meerut,Meerut,28.9900,77.7000,India,IN,1356390476
Yushu,Yushu,44.8249,126.5451,China,CN,1156326773
Rongcheng,Rongcheng,26.2312,104.0966,China,CN,1156122888
Huazhou,Huazhou,21.6540,110.6294,China,CN,1156282637
Yangquan,Yangquan,37.8576,113.5762,China,CN,1156157844
Adelaide,Adelaide,-34.9275,138.6000,Australia,AU,1036538171
Baishan,Baishan,41.9377,126.4179,China,CN,1156960624
Dayan,Dayan,26.8808,100.2208,China,CN,1156828380
Haicheng,Haicheng,40.8523,122.7474,China,CN,1156052713
Jiangyin,Jiangyin,31.9087,120.2653,China,CN,1156033234
Huaiyin,Huaiyin,33.5819,119.0280,China,CN,1156662372
Wuzhong,Wuzhong,37.9874,106.1919,China,CN,1156139322
Cacuaco,Cacuaco,-8.7833,13.3667,Angola,AO,1024559448
Barranquilla,Barranquilla,10.9639,-74.7964,Colombia,CO,1170179113
Sofia,Sofia,42.6979,23.3217,Bulgaria,BG,1100762037
Soweto,Soweto,-26.2678,27.8586,South Africa,ZA,1710627007
Jabalpur,Jabalpur,23.1667,79.9333,India,IN,1356115460
Rucheng,Rucheng,32.3852,120.5634,China,CN,1156323529
Nizhniy Novgorod,Nizhniy Novgorod,56.3269,44.0075,Russia,RU,1643012126
Shaoyang,Shaoyang,32.9387,119.8404,China,CN,1156668366
Dhanbād,Dhanbad,23.7928,86.4350,India,IN,1356103392
Comayagüela,Comayaguela,14.0833,-87.2167,Honduras,HN,1340762485
Laiwu,Laiwu,36.1833,117.6667,China,CN,1156207332
Sharjah,Sharjah,25.3575,55.3919,United Arab Emirates,AE,1784152993
Jingling,Jingling,30.6667,113.1667,China,CN,1156060544
Kazan,Kazan,55.7908,49.1144,Russia,RU,1643101260
Suwon,Suwon,37.2858,127.0100,South Korea,KR,1410679777
Yongcheng,Yongcheng,33.9317,116.4459,China,CN,1156841802
Calgary,Calgary,51.0500,-114.0667,Canada,CA,1124690423
Cần Thơ,Can Tho,10.0333,105.7833,Vietnam,VN,1704783472
Abuja,Abuja,9.0556,7.4914,Nigeria,NG,1566342270
Mandalay,Mandalay,21.9831,96.0844,Myanmar,MM,1104468217
Beidao,Beidao,34.6020,105.9180,China,CN,1156137209
Xiangshui,Xiangshui,26.5964,104.8314,China,CN,1156328867
Dadukou,Dadukou,26.5849,101.7149,China,CN,1156901342
Vila Velha,Vila Velha,3.2167,-51.2167,Brazil,BR,1076575691
Chelyabinsk,Chelyabinsk,55.1500,61.4000,Russia,RU,1643224011
Mombasa,Mombasa,-4.0500,39.6667,Kenya,KE,1404512373
Providence,Providence,41.8230,-71.4187,United States,US,1840003289
Vārānasi,Varanasi,25.3189,83.0128,India,IN,1356145782
Qom,Qom,34.6400,50.8764,Iran,IR,1364701633
Zhangye,Zhangye,38.9355,100.4553,China,CN,1156180353
Hiroshima,Hiroshima,34.4000,132.4500,Japan,JP,1392373695
Maiduguri,Maiduguri,11.8333,13.1500,Nigeria,NG,1566540296
Maputo,Maputo,-25.9153,32.5764,Mozambique,MZ,1508074843
Doha,Doha,25.3000,51.5333,Qatar,QA,1634459660
Rosario,Rosario,-32.9575,-60.6394,Argentina,AR,1032770677
Pikine,Pikine,14.7500,-17.4000,Senegal,SN,1686165071
Xinyu,Xinyu,27.7950,114.9242,China,CN,1156138735
Ahvāz,Ahvaz,31.3203,48.6692,Iran,IR,1364350188
Jacksonville,Jacksonville,30.3322,-81.6749,United States,US,1840015031
Medina,Medina,24.4667,39.6000,Saudi Arabia,SA,1682345785
Srīnagar,Srinagar,34.0911,74.8061,India,IN,1356442950
Omsk,Omsk,54.9667,73.3833,Russia,RU,1643360863
Liaoyuan,Liaoyuan,42.8976,125.1381,China,CN,1156249772
Cilacap,Cilacap,-7.7167,109.0170,Indonesia,ID,1360503809
Yingtan,Yingtan,28.2333,117.0000,China,CN,1156301061
Bandar Lampung,Bandar Lampung,-5.4294,105.2625,Indonesia,ID,1360243491
Samara,Samara,53.1833,50.1167,Russia,RU,1643205757
Guankou,Guankou,28.2363,113.6984,China,CN,1156249346
Ulsan,Ulsan,35.5500,129.3167,South Korea,KR,1410134602
Dingzhou,Dingzhou,38.5158,114.9845,China,CN,1156656582
Campinas,Campinas,-22.9009,-47.0573,Brazil,BR,1076145766
Lianyuan,Lianyuan,27.6961,111.6659,China,CN,1156490109
Dakar,Dakar,14.7319,-17.4572,Senegal,SN,1686604760
Rongcheng,Rongcheng,29.8239,112.9019,China,CN,1156102432
Kaiyuan,Kaiyuan,36.0656,113.8153,China,CN,1156441554
Nay Pyi Taw,Nay Pyi Taw,19.7475,96.1150,Myanmar,MM,1104838105
Kigali,Kigali,-1.9536,30.0606,Rwanda,RW,1646923541
Leiyang,Leiyang,26.4179,112.8457,China,CN,1156057789
Yichun,Yichun,47.7235,128.8893,China,CN,1156757274
Benin City,Benin City,6.3176,5.6145,Nigeria,NG,1566080151
Birmingham,Birmingham,52.4800,-1.9025,United Kingdom,GB,1826423213
Xiantao,Xiantao,30.3833,113.4000,China,CN,1156216927
Amritsar,Amritsar,31.6269,74.8770,India,IN,1356926507
Callao,Callao,-12.0611,-77.1333,Peru,PE,1604422141
Monterrey,Monterrey,25.6667,-100.3000,Mexico,MX,1484559591
Alīgarh,Aligarh,27.8800,78.0800,India,IN,1356076391
Yingchuan,Yingchuan,34.1511,113.4733,China,CN,1156748426
Ciudad Nezahualcóyotl,Ciudad Nezahualcoyotl,19.4100,-99.0300,Mexico,MX,1484016661
Tripoli,Tripoli,32.8752,13.1875,Libya,LY,1434201852
Nampo,Nampo,38.7689,125.4505,North Korea,KP,1408358410
Rostov,Rostov,47.2333,39.7167,Russia,RU,1643013518
Tegucigalpa,Tegucigalpa,14.0942,-87.2067,Honduras,HN,1340344059
Tbilisi,Tbilisi,41.7225,44.7925,Georgia,GE,1268203191
Guwāhāti,Guwahati,26.1722,91.7458,India,IN,1356593800
Ufa,Ufa,54.7261,55.9475,Russia,RU,1643722928
Fès,Fes,34.0433,-5.0033,Morocco,MA,1504861997
Biên Hòa,Bien Hoa,10.9508,106.8221,Vietnam,VN,1704863046
N’Djamena,N'Djamena,12.1100,15.0500,Chad,TD,1148708596
Ikare,Ikare,7.5304,5.7600,Nigeria,NG,1566683694
Salt Lake City,Salt Lake City,40.7777,-111.9306,United States,US,1840021383
Bhilai,Bhilai,21.2186,81.4314,India,IN,1356071083
Hāora,Haora,22.5736,88.3251,India,IN,1356986516
Tamale,Tamale,9.4075,-0.8533,Ghana,GH,1288890688
Xibeijie,Xibeijie,39.7370,98.5049,China,CN,1156960560
Copenhagen,Copenhagen,55.6805,12.5615,Denmark,DK,1208763942
Nezahualcóyotl,Nezahualcoyotl,19.4000,-98.9889,Mexico,MX,1484074285
Hanchuan,Hanchuan,30.6520,113.8274,China,CN,1156149248
Gongzhuling,Gongzhuling,43.5036,124.8088,China,CN,1156696810
Krasnoyarsk,Krasnoyarsk,56.0089,92.8719,Russia,RU,1643544975
Cologne,Cologne,50.9422,6.9578,Germany,DE,1276015998
Yicheng,Yicheng,31.3697,119.8239,China,CN,1156292419
Zhufeng,Zhufeng,36.0000,119.4167,China,CN,1156522825
São Gonçalo,Sao Goncalo,-22.8269,-43.0539,Brazil,BR,1076485783
Nashville,Nashville,36.1715,-86.7843,United States,US,1840036155
Yerevan,Yerevan,40.1814,44.5144,Armenia,AM,1051074169
Nur-Sultan,Nur-Sultan,51.1333,71.4333,Kazakhstan,KZ,1398516045
Nouakchott,Nouakchott,18.0858,-15.9785,Mauritania,MR,1478414984
Vereeniging,Vereeniging,-26.6736,27.9319,South Africa,ZA,1710271883
Richmond,Richmond,37.5295,-77.4756,United States,US,1840001698
São Luís,Sao Luis,-2.5300,-44.3028,Brazil,BR,1076819308
Rānchi,Ranchi,23.3556,85.3347,India,IN,1356110588
San Pedro Sula,San Pedro Sula,15.5000,-88.0333,Honduras,HN,1340568412
Taixing,Taixing,32.1724,120.0142,China,CN,1156331200
Gwalior,Gwalior,26.2150,78.1931,India,IN,1356363967
Memphis,Memphis,35.1046,-89.9773,United States,US,1840015457
Goyang,Goyang,37.6564,126.8350,South Korea,KR,1410511255
Bezwāda,Bezwada,16.5167,80.6167,India,IN,1356807575
Edmonton,Edmonton,53.5344,-113.4903,Canada,CA,1124290735
Bishkek,Bishkek,42.8667,74.5667,Kyrgyzstan,KG,1417191971
Mizhou,Mizhou,35.9900,119.3801,China,CN,1156935002
Tunis,Tunis,36.8008,10.1800,Tunisia,TN,1788742103
Xishan,Xishan,27.6609,113.4946,China,CN,1156155575
Ezhou,Ezhou,30.3972,114.8842,China,CN,1156414637
Barquisimeto,Barquisimeto,10.0678,-69.3467,Venezuela,VE,1862860739
Sendai,Sendai,38.2683,140.8694,Japan,JP,1392457903
Hegang,Hegang,47.3139,130.2775,China,CN,1156541759
Kathmandu,Kathmandu,27.7167,85.3667,Nepal,NP,1524589448
Mexicali,Mexicali,32.6633,-115.4678,Mexico,MX,1484788702
Voronezh,Voronezh,51.6717,39.2106,Russia,RU,1643811064
Perm,Perm,58.0139,56.2489,Russia,RU,1643294442
Changwon,Changwon,35.2281,128.6811,South Korea,KR,1410592618
Zhongwei,Zhongwei,37.5139,105.1884,China,CN,1156956616
Shouguang,Shouguang,36.8833,118.7333,China,CN,1156787809
Bogor,Bogor,-6.5917,106.8000,Indonesia,ID,1360771925
Raleigh,Raleigh,35.8325,-78.6435,United States,US,1840014497
Cartagena,Cartagena,10.4236,-75.5253,Colombia,CO,1170886102
Chandīgarh,Chandigarh,30.7353,76.7911,India,IN,1356739179
Matola,Matola,-25.9667,32.4667,Mozambique,MZ,1508768577
Jodhpur,Jodhpur,26.2944,73.0278,India,IN,1356727084
Ogbomoso,Ogbomoso,8.1333,4.2500,Nigeria,NG,1566373448
Shymkent,Shymkent,42.3000,69.6000,Kazakhstan,KZ,1398791401
Niamey,Niamey,13.5086,2.1111,Niger,NE,1562932886
Taizhou,Taizhou,28.6583,121.4221,China,CN,1156322307
Managua,Managua,12.1500,-86.2667,Nicaragua,NI,1558296252
Bagam,Bagam,1.0678,104.0167,Indonesia,ID,1360405604
Shubrā al Khaymah,Shubra al Khaymah,30.1286,31.2422,Egypt,EG,1818909612
Maceió,Maceio,-9.6658,-35.7350,Brazil,BR,1076440479
Monrovia,Monrovia,6.3106,-10.8047,Liberia,LR,1430477826
Wafangdian,Wafangdian,39.6271,121.9972,China,CN,1156476417
Zhongxiang,Zhongxiang,31.1690,112.5853,China,CN,1156631720
Odesa,Odesa,46.4775,30.7326,Ukraine,UA,1804178102
Port-au-Prince,Port-au-Prince,18.5425,-72.3386,Haiti,HT,1332401940
New Orleans,New Orleans,30.0687,-89.9288,United States,US,1840001839
Villahermosa,Villahermosa,17.9892,-92.9281,Mexico,MX,1484460894
Thủ Đức,Thu Duc,10.7924,106.7518,Vietnam,VN,1704361621
Volgograd,Volgograd,48.7086,44.5147,Russia,RU,1643577201
Mysore,Mysore,12.3086,76.6531,India,IN,1356779323
Islamabad,Islamabad,33.6989,73.0369,Pakistan,PK,1586306717
Xinyi,Xinyi,22.3559,110.9369,China,CN,1156936644
Raipur,Raipur,21.2379,81.6337,India,IN,1356374983
Arequipa,Arequipa,-16.3988,-71.5369,Peru,PE,1604723954
Port Harcourt,Port Harcourt,4.7500,7.0000,Nigeria,NG,1566070649
Louisville,Louisville,38.1663,-85.6485,United States,US,1840030815
Zaoyang,Zaoyang,32.1287,112.7581,China,CN,1156197076
Shuizhai,Shuizhai,33.4433,114.8994,China,CN,1156462734
Xingyi,Xingyi,25.0910,104.9011,China,CN,1156255316
Kota,Kota,25.1800,75.8300,India,IN,1356820310
Quetta,Quetta,30.1920,67.0070,Pakistan,PK,1586556108
Ottawa,Ottawa,45.4247,-75.6950,Canada,CA,1124399363
Stockholm,Stockholm,59.3294,18.0686,Sweden,SE,1752425602
Asmara,Asmara,15.3333,38.9167,Eritrea,ER,1232791236
Freetown,Freetown,8.4833,-13.2331,Sierra Leone,SL,1694085071
Vientiane,Vientiane,17.9667,102.6000,Laos,LA,1418732714
Jerusalem,Jerusalem,31.7833,35.2167,Israel,IL,1376261644
Bangui,Bangui,4.3732,18.5628,Central African Republic,CF,1140080881
Panama City,Panama City,9.0000,-79.5000,Panama,PA,1591672475
Amsterdam,Amsterdam,52.3667,4.8833,Netherlands,NL,1528355309
Lomé,Lome,6.1319,1.2228,Togo,TG,1768409132
Libreville,Libreville,0.3901,9.4544,Gabon,GA,1266952885
Zagreb,Zagreb,45.8131,15.9772,Croatia,HR,1191233290
Dushanbe,Dushanbe,38.5731,68.7864,Tajikistan,TJ,1762930616
Lilongwe,Lilongwe,-13.9833,33.7833,Malawi,MW,1454688499
Cotonou,Cotonou,6.4020,2.5180,Benin,BJ,1204955174
Colombo,Colombo,6.9167,79.8333,Sri Lanka,LK,1144251314
Pretoria,Pretoria,-25.7464,28.1881,South Africa,ZA,1710176249
Winnipeg,Winnipeg,49.8844,-97.1464,Canada,CA,1124224963
Quebec City,Quebec City,46.8139,-71.2081,Canada,CA,1124823933
Oslo,Oslo,59.9111,10.7528,Norway,NO,1578324706
Athens,Athens,37.9842,23.7281,Greece,GR,1300715560
Bujumbura,Bujumbura,-3.3825,29.3611,Burundi,BI,1108101689
Helsinki,Helsinki,60.1756,24.9342,Finland,FI,1246177997
Skopje,Skopje,41.9833,21.4333,Macedonia,MK,1807600615
Chisinau,Chisinau,47.0228,28.8353,Moldova,MD,1498011437
Riga,Riga,56.9475,24.1069,Latvia,LV,1428586192
Kingston,Kingston,17.9714,-76.7931,Jamaica,JM,1388709177
Rabat,Rabat,34.0253,-6.8361,Morocco,MA,1504023252
Vilnius,Vilnius,54.6833,25.2833,Lithuania,LT,1440887149
San Salvador,San Salvador,13.6989,-89.1914,El Salvador,SV,1222647454
Djibouti,Djibouti,11.5950,43.1481,Djibouti,DJ,1262028958
Dublin,Dublin,53.3497,-6.2603,Ireland,IE,1372595407
The Hague,The Hague,52.0800,4.3100,Netherlands,NL,1528799905
Asunción,Asuncion,-25.3000,-57.6333,Paraguay,PY,1600057911
Lisbon,Lisbon,38.7080,-9.1390,Portugal,PT,1620619017
Bratislava,Bratislava,48.1447,17.1128,Slovakia,SK,1703195001
Kitchener,Kitchener,43.4186,-80.4728,Canada,CA,1124158530
Tallinn,Tallinn,59.4372,24.7450,Estonia,EE,1233260021
Beirut,Beirut,33.8869,35.5131,Lebanon,LB,1422847713
Cape Town,Cape Town,-33.9250,18.4250,South Africa,ZA,1710680650
Tirana,Tirana,41.3300,19.8200,Albania,AL,1008162156
Wellington,Wellington,-41.2889,174.7772,New Zealand,NZ,1554772152
Dodoma,Dodoma,-6.1835,35.7460,Tanzania,TZ,1834288497
Halifax,Halifax,44.6475,-63.5906,Canada,CA,1124130981
Bissau,Bissau,11.8592,-15.5956,Guinea-Bissau,GW,1624168850
Canberra,Canberra,-35.2931,149.1269,Australia,AU,1036142029
Juba,Juba,4.8500,31.6000,South Sudan,SS,1728444337
Yamoussoukro,Yamoussoukro,6.8161,-5.2742,Côte d'Ivoire,CI,1384683557
Victoria,Victoria,48.4283,-123.3647,Canada,CA,1124147219
Maseru,Maseru,-29.3100,27.4800,Lesotho,LS,1426977668
Nicosia,Nicosia,35.1725,33.3650,Cyprus,CY,1196944155
Windhoek,Windhoek,-22.5700,17.0836,Namibia,NA,1516802003
Port Moresby,Port Moresby,-9.4789,147.1494,Papua New Guinea,PG,1598685395
Porto-Novo,Porto-Novo,6.4833,2.6167,Benin,BJ,1204172060
Sucre,Sucre,-19.0431,-65.2592,Bolivia,BO,1068823873
San José,San Jose,9.9333,-84.0833,Costa Rica,CR,1188749877
Ljubljana,Ljubljana,46.0500,14.5167,Slovenia,SI,1705917455
Sarajevo,Sarajevo,43.8563,18.4132,Bosnia And Herzegovina,BA,1070966777
Nassau,Nassau,25.0667,-77.3333,The Bahamas,BS,1044318561
Bloemfontein,Bloemfontein,-29.1000,26.2167,South Africa,ZA,1710495933
Fort-de-France,Fort-de-France,14.6104,-61.0800,Martinique,MQ,1474969110
New Delhi,New Delhi,28.6139,77.2090,India,IN,1356215164
Gaborone,Gaborone,-24.6569,25.9086,Botswana,BW,1072756768
Paramaribo,Paramaribo,5.8667,-55.1667,Suriname,SR,1740518660
Dili,Dili,-8.5536,125.5783,Timor-Leste,TL,1626308942
Male,Male,4.1750,73.5083,Maldives,MV,1462441685
Georgetown,Georgetown,6.7833,-58.1667,Guyana,GY,1328160906
Gibraltar,Gibraltar,36.1324,-5.3781,Gibraltar,GI,1292385245
Saint-Denis,Saint-Denis,-20.8789,55.4481,Reunion,RE,1638024662
Malabo,Malabo,3.7521,8.7737,Equatorial Guinea,GQ,1226861333
Podgorica,Podgorica,42.4397,19.2661,Montenegro,ME,1499454516
Manama,Manama,26.2250,50.5775,Bahrain,BH,1048989486
Port Louis,Port Louis,-20.1667,57.5000,Mauritius,MU,1480131261
Willemstad,Willemstad,12.1080,-68.9350,Curaçao,CW,1531000000
Bern,Bern,46.9480,7.4474,Switzerland,CH,1756374318
Papeete,Papeete,-17.5334,-149.5667,French Polynesia,PF,1258907380
Luxembourg,Luxembourg,49.6106,6.1328,Luxembourg,LU,1442262731
Reykjavík,Reykjavik,64.1475,-21.9350,Iceland,IS,1352327190
Praia,Praia,14.9177,-23.5092,Cabo Verde,CV,1132398770
Sri Jayewardenepura Kotte,Sri Jayewardenepura Kotte,6.9000,79.9164,Sri Lanka,LK,1144239330
Bridgetown,Bridgetown,13.0975,-59.6167,Barbados,BB,1052274244
Moroni,Moroni,-11.7036,43.2536,Comoros,KM,1174793581
Thimphu,Thimphu,27.4833,89.6333,Bhutan,BT,1064010361
Mbabane,Mbabane,-26.3208,31.1617,Swaziland,SZ,1748811945
Nouméa,Noumea,-22.2625,166.4443,New Caledonia,NC,1540958092
Honiara,Honiara,-9.4333,159.9500,Solomon Islands,SB,1090737486
Suva,Suva,-18.1333,178.4333,Fiji,FJ,1242615095
Ankara,Ankara,39.9300,32.8500,Turkey,TR,1792572891
Castries,Castries,14.0167,-60.9833,Saint Lucia,LC,1662922505
Cayenne,Cayenne,4.9330,-52.3300,French Guiana,GF,1254304969
São Tomé,Sao Tome,0.3333,6.7333,Sao Tome And Principe,ST,1678301324
Port-Vila,Port-Vila,-17.7333,168.3167,Vanuatu,VU,1548805075
Hamilton,Hamilton,32.2942,-64.7839,Bermuda,BM,1060000000
Bandar Seri Begawan,Bandar Seri Begawan,4.9167,114.9167,Brunei,BN,1096465895
Monaco,Monaco,43.7396,7.4069,Monaco,MC,1492854256
Gitega,Gitega,-3.4283,29.9250,Burundi,BI,1108778000
Port of Spain,Port of Spain,10.6667,-61.5167,Trinidad And Tobago,TT,1780670676
Apia,Apia,-13.8333,-171.8333,Samoa,WS,1882489296
Tarawa,Tarawa,1.3382,173.0176,Kiribati,KI,1296152641
Oranjestad,Oranjestad,12.5186,-70.0358,Aruba,AW,1533513057
Saint Helier,Saint Helier,49.1858,-2.1100,Jersey,JE,1832490253
Banjul,Banjul,13.4531,-16.5775,The Gambia,GM,1270723713
Mamoudzou,Mamoudzou,-12.7871,45.2750,Mayotte,YT,1175099654
Majuro,Majuro,7.0918,171.3802,Marshall Islands,MH,1584000000
Douglas,Douglas,54.1500,-4.4819,Isle Of Man,IM,1833688345
George Town,George Town,19.2866,-81.3744,Cayman Islands,KY,1136159124
Victoria,Victoria,-4.6236,55.4544,Seychelles,SC,1690193579
Kingstown,Kingstown,13.1667,-61.2333,Saint Vincent And The Grenadines,VC,1670376659
Andorra la Vella,Andorra la Vella,42.5000,1.5000,Andorra,AD,1020828846
Saint John’s,Saint John's,17.1211,-61.8447,Antigua And Barbuda,AG,1028912067
Nuku‘alofa,Nuku`alofa,-21.1347,-175.2083,Tonga,TO,1776737461
Ashgabat,Ashgabat,37.9500,58.3833,Turkmenistan,TM,1795049992
Nuuk,Nuuk,64.1750,-51.7333,Greenland,GL,1304028354
Belmopan,Belmopan,17.2500,-88.7675,Belize,BZ,1084586375
Roseau,Roseau,15.3000,-61.3833,Dominica,DM,1212060440
Basseterre,Basseterre,17.2983,-62.7342,Saint Kitts And Nevis,KN,1659198919
Tórshavn,Torshavn,62.0000,-6.7833,Faroe Islands,FO,1234904517
Pago Pago,Pago Pago,-14.2740,-170.7046,American Samoa,AS,1016976740
Valletta,Valletta,35.8978,14.5125,Malta,MT,1470574399
Gaza,Gaza,31.5069,34.4560,Gaza Strip,XG,1916116052
Grand Turk,Grand Turk,21.4664,-71.1360,Turks And Caicos Islands,TC,1796965313
Palikir,Palikir,6.9178,158.1850,Federated States of Micronesia,FM,1583008885
Funafuti,Funafuti,-8.5243,179.1942,Tuvalu,TV,1798251391
Vaduz,Vaduz,47.1397,9.5219,Liechtenstein,LI,1438317747
Lobamba,Lobamba,-26.4465,31.2064,Swaziland,SZ,1748963140
Avarua,Avarua,-21.2070,-159.7710,Cook Islands,CK,1184217570
Saint George’s,Saint George's,12.0444,-61.7417,Grenada,GD,1308891766
San Marino,San Marino,43.9320,12.4484,San Marino,SM,1674741947
Al Quds,Al Quds,31.7764,35.2269,West Bank,XW,1934000006
Capitol Hill,Capitol Hill,15.2137,145.7546,Northern Mariana Islands,MP,1580556972
Stanley,Stanley,-51.7000,-57.8500,Falkland Islands (Islas Malvinas),FK,1238780509
Vatican City,Vatican City,41.9033,12.4534,Vatican City,VA,1336000000
Alofi,Alofi,-19.0560,-169.9210,Niue,NU,1570882835
Basse-Terre,Basse-Terre,16.0104,-61.7055,Guadeloupe,GP,1312938008
Hagåtña,Hagta,13.4745,144.7504,Guam,GU,1316937540
Marigot,Marigot,18.0706,-63.0847,Saint Martin,MF,1663133172
Jamestown,Jamestown,-15.9251,-5.7179,"Saint Helena, Ascension, And Tristan Da Cunha",SH,1654761576
Brades,Brades,16.7928,-62.2106,Montserrat,MS,1500971198
Philipsburg,Philipsburg,18.0256,-63.0492,Sint Maarten,SX,1534859858
Yaren,Yaren,-0.5477,166.9209,Nauru,NR,1520790128
Pristina,Pristina,42.6633,21.1622,Kosovo,XK,1901760068
Gustavia,Gustavia,17.8958,-62.8508,Saint Barthelemy,BL,1652681565
Road Town,Road Town,18.4167,-64.6167,British Virgin Islands,VG,1092732412
Ngerulmud,Ngerulmud,7.5006,134.6242,Palau,PW,1585525081
Saint-Pierre,Saint-Pierre,46.7811,-56.1764,Saint Pierre And Miquelon,PM,1666340272
The Valley,The Valley,18.2167,-63.0500,Anguilla,AI,1660698387
Mata-Utu,Mata-Utu,-13.2825,-176.1736,Wallis And Futuna,WF,1876784844
Kingston,Kingston,-29.0569,167.9617,Norfolk Island,NF,1574121434
Longyearbyen,Longyearbyen,78.2167,15.6333,Svalbard,XR,1930654114
Tifariti,Tifariti,26.0928,-10.6089,Morocco,MA,1504999990
Adamstown,Adamstown,-25.0667,-130.0833,Pitcairn Islands,PN,1612000000
Flying Fish Cove,Flying Fish Cove,-10.4167,105.7167,Christmas Island,CX,1162889600
King Edward Point,King Edward Point,-54.2833,-36.5000,South Georgia And South Sandwich Islands,GS,1239048838
Bareilly,Bareilly,28.3640,79.4150,India,IN,1356698199
Quảng Hà,Quang Ha,16.0600,108.2500,Vietnam,VN,1704966442
Xingcheng,Xingcheng,24.1681,115.6669,China,CN,1156913008
Dongtai,Dongtai,32.8534,120.3037,China,CN,1156536785
Al Manşūrah,Al Mansurah,31.0500,31.3833,Egypt,EG,1818255319
Yingcheng,Yingcheng,24.1878,113.4042,China,CN,1156012356
Chiba,Chiba,35.6073,140.1064,Japan,JP,1392107144
Pekanbaru,Pekanbaru,0.5333,101.4500,Indonesia,ID,1360422679
Luocheng,Luocheng,22.7645,111.5745,China,CN,1156138895
Dnipro,Dnipro,48.4675,35.0400,Ukraine,UA,1804152933
Danyang,Danyang,31.9948,119.5750,China,CN,1156578273
Natal,Natal,-6.9838,-60.2699,Brazil,BR,1076336975
Nada,Nada,19.5000,109.5833,China,CN,1156911678
Zamboanga City,Zamboanga City,6.9167,122.0833,Philippines,PH,1608189351
Kirkuk,Kirkuk,35.4667,44.4000,Iraq,IQ,1368344172
Naples,Naples,40.8333,14.2500,Italy,IT,1380646673
Wuchuan,Wuchuan,21.4283,110.7749,China,CN,1156198103
Huilong,Huilong,31.8131,121.6574,China,CN,1156485081
Oklahoma City,Oklahoma City,35.4676,-97.5136,United States,US,1840020428
Morelia,Morelia,19.7683,-101.1894,Mexico,MX,1484669072
Cebu City,Cebu City,10.2930,123.9020,Philippines,PH,1608136151
Shaoxing,Shaoxing,30.0000,120.5833,China,CN,1156893449
Coimbatore,Coimbatore,11.0000,76.9667,India,IN,1356999503
Santo Domingo Este,Santo Domingo Este,18.4855,-69.8734,Dominican Republic,DO,1214664832
Setagaya,Setagaya,35.6464,139.6533,Japan,JP,1392792380
Sŏngnam,Songnam,37.4386,127.1378,South Korea,KR,1410622472
Taishan,Taishan,22.2486,112.7850,China,CN,1156105450
Fangchenggang,Fangchenggang,21.6000,108.3000,China,CN,1156532454
Solāpur,Solapur,17.6715,75.9104,India,IN,1356314385
Tangier,Tangier,35.7767,-5.8039,Morocco,MA,1504861504
Anqiu,Anqiu,36.3619,119.1072,China,CN,1156592047
Feicheng,Feicheng,36.1860,116.7720,China,CN,1156303834
Kermānshāh,Kermanshah,34.3167,47.0686,Iran,IR,1364535690
Kitakyūshū,Kitakyushu,33.8833,130.8833,Japan,JP,1392003140
Meishan,Meishan,34.1736,112.8390,China,CN,1156023073
Khartoum North,Khartoum North,15.6333,32.6333,Sudan,SD,1729318628
Kisangani,Kisangani,0.5153,25.1911,Congo (Kinshasa),CD,1180478201
Aguascalientes,Aguascalientes,21.8760,-102.2960,Mexico,MX,1484666646
Marrakech,Marrakech,31.6295,-7.9811,Morocco,MA,1504172585
Donetsk,Donetsk,48.0089,37.8042,Ukraine,UA,1804963805
Trujillo,Trujillo,-8.1119,-79.0289,Peru,PE,1604613706
Taihe,Taihe,30.8706,105.3784,China,CN,1156281983
Bridgeport,Bridgeport,41.1918,-73.1953,United States,US,1840004836
Trichinopoly,Trichinopoly,10.8269,78.6928,India,IN,1356884472
Xin’an,Xin'an,34.3662,118.3369,China,CN,1156236053
Taihecun,Taihecun,45.7680,131.0063,China,CN,1156875484
Naucalpan de Juárez,Naucalpan de Juarez,19.4753,-99.2378,Mexico,MX,1484850125
Owerri,Owerri,5.4833,7.0333,Nigeria,NG,1566679132
Padang,Padang,-0.9556,100.3606,Indonesia,ID,1360900986
Qingzhou,Qingzhou,36.6967,118.4797,China,CN,1156874864
Buffalo,Buffalo,42.9016,-78.8487,United States,US,1840000386
Lichuan,Lichuan,30.2965,108.9378,China,CN,1156302762
Daye,Daye,30.1003,114.9699,China,CN,1156255811
Fort Worth,Fort Worth,32.7811,-97.3473,United States,US,1840020696
Hengzhou,Hengzhou,22.6896,109.2674,China,CN,1156041202
Campo Grande,Campo Grande,-20.4686,-54.6222,Brazil,BR,1076660445
Zhuanghe,Zhuanghe,39.6896,122.9664,China,CN,1156410076
Hartford,Hartford,41.7661,-72.6834,United States,US,1840004773
Bobo-Dioulasso,Bobo-Dioulasso,11.1833,-4.2833,Burkina Faso,BF,1854348796
Ad Dammām,Ad Dammam,26.4333,50.1000,Saudi Arabia,SA,1682452296
Lhasa,Lhasa,29.6458,91.1408,China,CN,1156369972
Jiaozhou,Jiaozhou,36.2481,119.9625,China,CN,1156752602
Taguig City,Taguig City,14.5167,121.0500,Philippines,PH,1608766695
Mérida,Merida,20.9700,-89.6200,Mexico,MX,1484396779
Yangchun,Yangchun,22.1717,111.7846,China,CN,1156787307
Bucheon,Bucheon,37.4989,126.7831,South Korea,KR,1410428222
Dengtalu,Dengtalu,36.0819,114.3481,China,CN,1156202014
Antipolo,Antipolo,14.5842,121.1763,Philippines,PH,1608824345
Hubli,Hubli,15.3619,75.1231,India,IN,1356102365
Abeokuta,Abeokuta,7.1500,3.3500,Nigeria,NG,1566979497
Cancún,Cancun,21.1606,-86.8475,Mexico,MX,1484010310
Tucson,Tucson,32.1545,-110.8782,United States,US,1840022101
Krasnodar,Krasnodar,45.0333,38.9833,Russia,RU,1643438227
Natal,Natal,-5.7950,-35.2089,Brazil,BR,1076697777
Chihuahua,Chihuahua,28.6353,-106.0889,Mexico,MX,1484335603
Klang,Klang,3.0333,101.4500,Malaysia,MY,1458509635
Turin,Turin,45.0667,7.7000,Italy,IT,1380244627
Ar Ramādī,Ar Ramadi,33.4258,43.2992,Iraq,IQ,1368838855
Laiyang,Laiyang,36.9758,120.7136,China,CN,1156207330
Sale,Sale,34.0500,-6.8167,Morocco,MA,1504989034
Jalandhar,Jalandhar,31.3256,75.5792,India,IN,1356494816
Kaifeng Chengguanzhen,Kaifeng Chengguanzhen,34.8519,114.3481,China,CN,1156686574
Ikeja,Ikeja,6.6186,3.3426,Nigeria,NG,1566486388
Malang,Malang,-7.9800,112.6200,Indonesia,ID,1360141408
Marseille,Marseille,43.2964,5.3700,France,FR,1250774071
Saltillo,Saltillo,25.4333,-101.0000,Mexico,MX,1484107245
Gaomi,Gaomi,36.3833,119.7500,China,CN,1156673331
Ipoh,Ipoh,4.6000,101.0700,Malaysia,MY,1458423505
Hai’an,Hai'an,32.5320,120.4604,China,CN,1156332302
Oran,Oran,35.6969,-0.6331,Algeria,DZ,1012126319
Hermosillo,Hermosillo,29.0989,-110.9542,Mexico,MX,1484015319
Weichanglu,Weichanglu,37.1792,119.9333,China,CN,1156194600
Shache,Shache,38.4261,77.2500,China,CN,1156278934
Leping,Leping,28.9632,117.1203,China,CN,1156705082
Hailun,Hailun,47.4585,126.9632,China,CN,1156804488
Macheng,Macheng,31.1817,115.0189,China,CN,1156949639
Akure,Akure,7.2500,5.1950,Nigeria,NG,1566568277
Ilorin,Ilorin,8.5000,4.5500,Nigeria,NG,1566480168
Teresina,Teresina,-5.0949,-42.8042,Brazil,BR,1076727667
Yuci,Yuci,37.6823,112.7281,China,CN,1156177817
Omaha,Omaha,41.2627,-96.0522,United States,US,1840009315
Saratov,Saratov,51.5333,46.0000,Russia,RU,1643556540
Erbil,Erbil,36.1911,44.0094,Iraq,IQ,1368578192
Iguaçu,Iguacu,-22.7400,-43.4700,Brazil,BR,1076339714
El Paso,El Paso,31.8479,-106.4309,United States,US,1840023252
Pasig City,Pasig City,14.5750,121.0833,Philippines,PH,1608278212
Denpasar,Denpasar,-8.6667,115.2167,Indonesia,ID,1360848527
Dehui,Dehui,44.5323,125.6965,China,CN,1156898134
Bhubaneshwar,Bhubaneshwar,20.2644,85.8281,India,IN,1356140143
Tongchuan,Tongchuan,34.9057,108.9422,China,CN,1156849608
Cheongju,Cheongju,36.6372,127.4897,South Korea,KR,1410964361
Warri,Warri,5.5167,5.7500,Nigeria,NG,1566325734
Pointe-Noire,Pointe-Noire,-4.7889,11.8653,Congo (Brazzaville),CG,1178411563
Sakai,Sakai,34.5667,135.4833,Japan,JP,1392003291
Rongjiawan,Rongjiawan,29.1409,113.1087,China,CN,1156795164
Butterworth,Butterworth,5.3992,100.3639,Malaysia,MY,1458469233
Renqiu,Renqiu,38.7094,116.1008,China,CN,1156943939
Honolulu,Honolulu,21.3294,-157.8460,United States,US,1840013305
Xindi,Xindi,29.8182,113.4653,China,CN,1156263165
Wu’an,Wu'an,36.6941,114.1847,China,CN,1156729960
São Bernardo do Campo,Sao Bernardo do Campo,-23.6939,-46.5650,Brazil,BR,1076793227
Gaoyou,Gaoyou,32.7847,119.4432,China,CN,1156235854
Culiacán,Culiacan,24.8069,-107.3939,Mexico,MX,1484516810
Hejian,Hejian,38.4451,116.0897,China,CN,1156405731
Yiyang,Yiyang,26.4103,112.3913,China,CN,1156142520
Puxi,Puxi,35.2125,114.7350,China,CN,1156046618
Zijinglu,Zijinglu,34.7513,112.9854,China,CN,1156086381
João Pessoa,Joao Pessoa,-7.1200,-34.8800,Brazil,BR,1076922014
McAllen,McAllen,26.2273,-98.2471,United States,US,1840021024
Querétaro,Queretaro,20.5875,-100.3928,Mexico,MX,1484604775
Abaeté,Abaete,-19.1583,-45.4522,Brazil,BR,1076413528
Palermo,Palermo,2.8883,-75.4339,Colombia,CO,1170614290
Qingping,Qingping,34.5380,113.3796,China,CN,1156033855
Valencia,Valencia,39.4700,-0.3764,Spain,ES,1724981666
Niigata,Niigata,37.9161,139.0364,Japan,JP,1392913753
Leeds,Leeds,53.7997,-1.5492,United Kingdom,GB,1826343963
Morādābād,Moradabad,28.8437,78.7548,India,IN,1356269375
Hamamatsu,Hamamatsu,34.7167,137.7333,Japan,JP,1392174500
Xiangxiang,Xiangxiang,27.7389,112.5223,China,CN,1156524101
Chaohucun,Chaohucun,31.6783,117.7353,China,CN,1156671495
Fuyang,Fuyang,30.0553,119.9500,China,CN,1156340393
Homs,Homs,34.7333,36.7167,Syria,SY,1760013934
Lubango,Lubango,-14.9167,13.5000,Angola,AO,1024669127
San Luis Potosí,San Luis Potosi,22.1511,-100.9761,Mexico,MX,1484583620
Cencheng,Cencheng,22.9297,111.0186,China,CN,1156000460
Dali,Dali,25.7003,100.1564,China,CN,1156840276
Hamhŭng,Hamhung,39.9167,127.5333,North Korea,KP,1408482040
Kraków,Krakow,50.0614,19.9372,Poland,PL,1616172264
Hempstead,Hempstead,40.6629,-73.6089,United States,US,1840005293
Frankfurt,Frankfurt,50.1136,8.6797,Germany,DE,1276054552
Al ‘Ayn,Al `Ayn,24.2075,55.7447,United Arab Emirates,AE,1784674685
Songzi,Songzi,30.1772,111.7732,China,CN,1156837705
Laixi,Laixi,36.8667,120.5333,China,CN,1156973102
Bahawalpur,Bahawalpur,29.3956,71.6722,Pakistan,PK,1586038700
Zhongba,Zhongba,31.7761,104.7406,China,CN,1156515985
Kaduna,Kaduna,10.5105,7.4165,Nigeria,NG,1566368729
Qingnian,Qingnian,36.8494,115.7061,China,CN,1156689964
Albuquerque,Albuquerque,35.1053,-106.6464,United States,US,1840019176
Xinhualu,Xinhualu,34.3962,113.7249,China,CN,1156544851
Nerima,Nerima,35.7500,139.6167,Japan,JP,1392093402
Guangshui,Guangshui,31.6189,113.8229,China,CN,1156267419
Tlajomulco de Zúñiga,Tlajomulco de Zuniga,20.4736,-103.4431,Mexico,MX,1484017493
Samarinda,Samarinda,-0.5022,117.1536,Indonesia,ID,1360684979
Pietermaritzburg,Pietermaritzburg,-29.6009,30.3796,South Africa,ZA,1710690280
Changhua,Changhua,24.0667,120.5333,Taiwan,TW,1158439005
Kolhāpur,Kolhapur,16.7000,74.2333,India,IN,1356110593
Sizhan,Sizhan,39.0099,106.3694,China,CN,1156450911
Ciudad Guayana,Ciudad Guayana,8.3596,-62.6517,Venezuela,VE,1862889027
Cúcuta,Cucuta,7.9075,-72.5047,Colombia,CO,1170743755
Licheng,Licheng,31.4174,119.4786,China,CN,1156933354
Ōta-ku,Ota-ku,35.5614,139.7161,Japan,JP,1392003511
Thiruvananthapuram,Thiruvananthapuram,8.5000,76.8997,India,IN,1356024354
Tyumen,Tyumen,57.1500,65.5333,Russia,RU,1643040435
Nampula,Nampula,-15.1167,39.2667,Mozambique,MZ,1508958445
Zaporizhzhia,Zaporizhzhia,47.8378,35.1383,Ukraine,UA,1804644752
Chengguan,Chengguan,35.5256,113.6976,China,CN,1156866870
Kumamoto,Kumamoto,32.8031,130.7078,Japan,JP,1392106283
Nehe,Nehe,48.4800,124.8738,China,CN,1156609562
Birmingham,Birmingham,33.5277,-86.7987,United States,US,1840006507
Zunhua,Zunhua,40.1881,117.9593,China,CN,1156756935
Valenzuela,Valenzuela,14.7000,120.9833,Philippines,PH,1608492120
Orūmīyeh,Orumiyeh,37.5486,45.0675,Iran,IR,1364158221
Wugang,Wugang,26.7345,110.6293,China,CN,1156089788
Osogbo,Osogbo,7.7597,4.5761,Nigeria,NG,1566395088
Shuangqiao,Shuangqiao,35.0833,112.5833,China,CN,1156968311
Comodoro Rivadavia,Comodoro Rivadavia,-45.8667,-67.5000,Argentina,AR,1032042035
Cagayan de Oro,Cagayan de Oro,8.4833,124.6500,Philippines,PH,1608831546
Langzhong,Langzhong,31.5504,105.9938,China,CN,1156930148
Qian’an,Qian'an,40.0059,118.6973,China,CN,1156315498
Lviv,Lviv,49.8419,24.0315,Ukraine,UA,1804939658
Zouping,Zouping,36.8625,117.7424,China,CN,1156817518
An Najaf,An Najaf,32.0290,44.3396,Iraq,IQ,1368003357
Sagamihara,Sagamihara,35.5667,139.3667,Japan,JP,1392967248
Sarasota,Sarasota,27.3386,-82.5431,United States,US,1840015988
Mississauga,Mississauga,43.6000,-79.6500,Canada,CA,1124112672
Okayama,Okayama,34.6500,133.9167,Japan,JP,1392954750
Anlu,Anlu,31.2575,113.6783,China,CN,1156406202
Dayton,Dayton,39.7797,-84.1998,United States,US,1840034249
Changsha,Changsha,22.3762,112.6877,China,CN,1156011120
Torreón,Torreon,25.5394,-103.4486,Mexico,MX,1484215762
Shihezi,Shihezi,44.3000,86.0333,China,CN,1156232270
George Town,George Town,5.4145,100.3292,Malaysia,MY,1458236750
Enugu,Enugu,6.4403,7.4942,Nigeria,NG,1566212729
Soledad,Soledad,10.9200,-74.7700,Colombia,CO,1170765625
Jaboatão,Jaboatao,-8.1803,-35.0014,Brazil,BR,1076000699
Yanggok,Yanggok,37.6367,127.2142,South Korea,KR,1410188674
Yatou,Yatou,37.1653,122.4867,China,CN,1156009046
Santo André,Santo Andre,-23.6572,-46.5333,Brazil,BR,1076625886
Xichang,Xichang,27.8983,102.2706,China,CN,1156116456
Bhiwandi,Bhiwandi,19.3000,73.0667,India,IN,1356763571
City of Parañaque,City of Paranaque,14.4667,121.0167,Philippines,PH,1608379532
Dasmariñas,Dasmarinas,14.3294,120.9367,Philippines,PH,1608418544
Chengxiang,Chengxiang,31.4515,121.1043,China,CN,1156254788
Sahāranpur,Saharanpur,29.9640,77.5460,India,IN,1356139858
Warangal,Warangal,17.9756,79.6011,India,IN,1356851618
Edogawa,Edogawa,35.6924,139.8757,Japan,JP,1392135698
Osasco,Osasco,-23.5328,-46.7919,Brazil,BR,1076786452
Dashiqiao,Dashiqiao,40.6328,122.5021,China,CN,1156141962
Latakia,Latakia,35.5236,35.7917,Syria,SY,1760555544
Rochester,Rochester,43.1680,-77.6162,United States,US,1840000373
Fresno,Fresno,36.7831,-119.7941,United States,US,1840020319
Banjarmasin,Banjarmasin,-3.3190,114.5921,Indonesia,ID,1360685223
Salem,Salem,11.6500,78.1667,India,IN,1356567087
General Santos,General Santos,6.1167,125.1667,Philippines,PH,1608171585
Ḩamāh,Hamah,35.1333,36.7500,Syria,SY,1760197502
Bacoor,Bacoor,14.4624,120.9645,Philippines,PH,1608869358
Shishi,Shishi,24.7355,118.6434,China,CN,1156077046
Guadalupe,Guadalupe,25.6775,-100.2597,Mexico,MX,1484002410
Adachi,Adachi,35.7833,139.8000,Japan,JP,1392464568
Qianxi,Qianxi,27.0284,106.0327,China,CN,1156919716
Tolyatti,Tolyatti,53.5167,49.4167,Russia,RU,1643256295
Macau,Macau,22.2030,113.5450,Macau,MO,1446227359
Bauchi,Bauchi,10.3158,9.8442,Nigeria,NG,1566483284
Hamilton,Hamilton,43.2567,-79.8692,Canada,CA,1124567288
Łódź,Lodz,51.7769,19.4547,Poland,PL,1616832750
Miluo Chengguanzhen,Miluo Chengguanzhen,28.8049,113.0745,China,CN,1156690651
Gaizhou,Gaizhou,40.4019,122.3499,China,CN,1156145272
Mālegaon,Malegaon,20.5500,74.5500,India,IN,1356113556
Karbalā’,Karbala',32.6167,44.0333,Iraq,IQ,1368597794
Leling,Leling,37.7333,117.2167,China,CN,1156044041
São José dos Campos,Sao Jose dos Campos,-23.1789,-45.8869,Brazil,BR,1076783887
Sevilla,Sevilla,37.3900,-5.9900,Spain,ES,1724991838
Jianshe,Jianshe,34.2189,113.7693,China,CN,1156444449
Shizuoka,Shizuoka,34.9756,138.3825,Japan,JP,1392235505
Jingcheng,Jingcheng,32.0058,120.2547,China,CN,1156033208
Kochi,Kochi,9.9667,76.2833,India,IN,1356707865
Allentown,Allentown,40.5961,-75.4756,United States,US,1840001044
Tasikmalaya,Tasikmalaya,-7.3333,108.2000,Indonesia,ID,1360027771
Rasht,Rasht,37.2833,49.6000,Iran,IR,1364630382
Xinmin,Xinmin,41.9952,122.8224,China,CN,1156368551
Zhongshu,Zhongshu,27.8116,106.4133,China,CN,1156658422
Xigazê,Xigaze,29.2649,88.8799,China,CN,1156107208
Gorakhpur,Gorakhpur,26.7611,83.3667,India,IN,1356190221
As Sulaymānīyah,As Sulaymaniyah,35.5500,45.4333,Iraq,IQ,1368735317
Zaragoza,Zaragoza,41.6500,-0.8833,Spain,ES,1724907391
Acapulco de Juárez,Acapulco de Juarez,16.8636,-99.8825,Mexico,MX,1484463183
Bahār,Bahar,34.9069,48.4414,Iran,IR,1364891653
Palermo,Palermo,38.1111,13.3517,Italy,IT,1380428434
Guankou,Guankou,30.9933,103.6240,China,CN,1156503907
Tulsa,Tulsa,36.1284,-95.9042,United States,US,1840021672
Tlaquepaque,Tlaquepaque,20.6167,-103.3167,Mexico,MX,1484087945
Mazatlán,Mazatlan,23.2167,-106.4167,Mexico,MX,1484841466
Songyang,Songyang,34.4603,113.0280,China,CN,1156143149
Cape Coral,Cape Coral,26.6446,-81.9956,United States,US,1840015130
Ch’ŏngjin,Ch'ongjin,41.8000,129.7831,North Korea,KP,1408498177
Puyang Chengguanzhen,Puyang Chengguanzhen,35.7004,114.9800,China,CN,1156103317
Qionghu,Qionghu,28.8417,112.3595,China,CN,1156678111
Ribeirão Prêto,Ribeirao Preto,-21.1783,-47.8067,Brazil,BR,1076524478
Zhaodong,Zhaodong,46.0635,125.9773,China,CN,1156601489
Huambo,Huambo,-12.7667,15.7333,Angola,AO,1024079828
Wenchang,Wenchang,31.0540,116.9507,China,CN,1156574542
Shulan,Shulan,44.4079,126.9429,China,CN,1156989733
Tlalnepantla,Tlalnepantla,19.5367,-99.1947,Mexico,MX,1484861603
Catia La Mar,Catia La Mar,10.6038,-67.0303,Venezuela,VE,1862657837
Sargodha,Sargodha,32.0836,72.6711,Pakistan,PK,1586696588
Al Hufūf,Al Hufuf,25.3608,49.5997,Saudi Arabia,SA,1682958157
Durango,Durango,24.0167,-104.6667,Mexico,MX,1484854616
Jalingo,Jalingo,8.9195,11.3264,Nigeria,NG,1566732241
Bouaké,Bouake,7.6833,-5.0331,Côte d'Ivoire,CI,1384983838
Sialkot City,Sialkot City,32.5000,74.5333,Pakistan,PK,1586141444
San Jose del Monte,San Jose del Monte,14.8139,121.0453,Philippines,PH,1608850554
Ansan,Ansan,37.3236,126.8219,South Korea,KR,1410585171
Lingbao Chengguanzhen,Lingbao Chengguanzhen,34.5221,110.8786,China,CN,1156837145
Hwasu-dong,Hwasu-dong,37.2000,126.7667,South Korea,KR,1410037247
Huế,Hue,16.4637,107.5908,Vietnam,VN,1704016023
Shimoga,Shimoga,13.9167,75.5667,India,IN,1356016156
Bulawayo,Bulawayo,-20.1667,28.5667,Zimbabwe,ZW,1716032632
Xiping,Xiping,25.6005,103.8166,China,CN,1156207794
Sanhe,Sanhe,39.9808,117.0701,China,CN,1156476348
Guntūr,Guntur,16.3000,80.4500,India,IN,1356374905
Concord,Concord,37.9722,-122.0016,United States,US,1840018905
Contagem,Contagem,-19.9319,-44.0539,Brazil,BR,1076845191
Tiruppūr,Tiruppur,11.1075,77.3398,India,IN,1356539761
Ch’ŏnan,Ch'onan,36.8064,127.1522,South Korea,KR,1410020455
Tripoli,Tripoli,34.4333,35.8333,Lebanon,LB,1422886065
Honchō,Honcho,35.6947,139.9825,Japan,JP,1392505502
Düsseldorf,Dusseldorf,51.2311,6.7724,Germany,DE,1276615258
Izhevsk,Izhevsk,56.8500,53.2167,Russia,RU,1643983138
Guixi,Guixi,28.2861,117.2083,China,CN,1156259342
Sorocaba,Sorocaba,-23.5019,-47.4578,Brazil,BR,1076758708
Petaling Jaya,Petaling Jaya,3.1073,101.6067,Malaysia,MY,1458989343
Tengyue,Tengyue,25.0208,98.4972,China,CN,1156832866
Wuxue,Wuxue,29.8518,115.5539,China,CN,1156027100
Kikwit,Kikwit,-5.0333,18.8167,Congo (Kinshasa),CD,1180518247
Colorado Springs,Colorado Springs,38.8674,-104.7606,United States,US,1840018825
Qufu,Qufu,35.6000,116.9833,China,CN,1156490037
Gaobeidian,Gaobeidian,39.3257,115.8678,China,CN,1156487293
Ruiming,Ruiming,25.8833,116.0333,China,CN,1156104573
Wrocław,Wroclaw,51.1100,17.0325,Poland,PL,1616108520
Gold Coast,Gold Coast,-28.0167,153.4000,Australia,AU,1036153217
Xinshi,Xinshi,31.0236,113.1079,China,CN,1156422214
Ta‘izz,Ta`izz,13.5789,44.0219,Yemen,YE,1887324526
Aracaju,Aracaju,-10.9167,-37.0500,Brazil,BR,1076527830
Cochabamba,Cochabamba,-17.3935,-66.1570,Bolivia,BO,1068793894
Jeonju,Jeonju,35.8219,127.1489,South Korea,KR,1410494847
Jin’e,Jin'e,29.3395,105.2868,China,CN,1156661253
Barnaul,Barnaul,53.3567,83.7872,Russia,RU,1643318931
Makati City,Makati City,14.5500,121.0333,Philippines,PH,1608725647
Stuttgart,Stuttgart,48.7761,9.1775,Germany,DE,1276171358
Rotterdam,Rotterdam,51.9225,4.4792,Netherlands,NL,1528892850
Changping,Changping,40.2248,116.1944,China,CN,1156166828
Benghazi,Benghazi,32.1167,20.0667,Libya,LY,1434915572
Kryvyi Rih,Kryvyi Rih,47.9086,33.3433,Ukraine,UA,1804544901
Raurkela,Raurkela,22.2492,84.8828,India,IN,1356096816
Ḩalwān,Halwan,29.8419,31.3342,Egypt,EG,1818000039
Charleston,Charleston,32.8153,-79.9628,United States,US,1840015163
Chimalhuacán,Chimalhuacan,19.4167,-98.9000,Mexico,MX,1484504936
Xinxing,Xinxing,39.8734,124.1453,China,CN,1156258586
Suohe,Suohe,34.7879,113.3920,China,CN,1156236948
Mangalore,Mangalore,12.8703,74.8806,India,IN,1356972351
Zhuangyuan,Zhuangyuan,37.3056,120.8275,China,CN,1156263400
Glasgow,Glasgow,55.8611,-4.2500,United Kingdom,GB,1826836462
Namangan,Namangan,40.9953,71.6725,Uzbekistan,UZ,1860894033
Ulyanovsk,Ulyanovsk,54.3167,48.3667,Russia,RU,1643668944
Irkutsk,Irkutsk,52.2833,104.3000,Russia,RU,1643439037
Nānded,Nanded,19.1700,77.3000,India,IN,1356722310
Jos,Jos,9.9333,8.8833,Nigeria,NG,1566773679
Pontianak,Pontianak,-0.0206,109.3414,Indonesia,ID,1360992394
Villa Nueva,Villa Nueva,14.5314,-90.5964,Guatemala,GT,1320353009
Bazhou,Bazhou,39.1235,116.3860,China,CN,1156127276
Springfield,Springfield,42.1155,-72.5395,United States,US,1840000466
Turpan,Turpan,42.9500,89.1822,China,CN,1156573684
Las Piñas City,Las Pinas City,14.4500,120.9833,Philippines,PH,1608544537
Meihekou,Meihekou,42.5279,125.6780,China,CN,1156474288
Jurong,Jurong,31.9579,119.1595,China,CN,1156897463
Feira de Santana,Feira de Santana,-12.2669,-38.9669,Brazil,BR,1076892244
Khabarovsk,Khabarovsk,48.4833,135.0667,Russia,RU,1643175363
Xinji,Xinji,37.9423,115.2118,China,CN,1156456552
Serang,Serang,-6.1200,106.1503,Indonesia,ID,1360329102
Kandahār,Kandahar,31.6078,65.7053,Afghanistan,AF,1004003059
Sanya,Sanya,18.2536,109.5019,China,CN,1156373900
San Miguel de Tucumán,San Miguel de Tucuman,-26.8167,-65.2167,Argentina,AR,1032233996
Yaroslavl,Yaroslavl,57.6167,39.8500,Russia,RU,1643338528
Zhangshu,Zhangshu,28.0667,115.5375,China,CN,1156996913
Bağcılar,Bagcilar,41.0406,28.8261,Turkey,TR,1792374908
Grand Rapids,Grand Rapids,42.9620,-85.6562,United States,US,1840002928
Vladivostok,Vladivostok,43.1167,131.9000,Russia,RU,1643832017
Kuantan,Kuantan,3.8167,103.3333,Malaysia,MY,1458763489
Gothenburg,Gothenburg,57.6717,11.9810,Sweden,SE,1752059374
Cuttack,Cuttack,20.4650,85.8793,India,IN,1356872061
Jambi,Jambi,-1.5900,103.6100,Indonesia,ID,1360645580
Cimahi,Cimahi,-6.8833,107.5333,Indonesia,ID,1360181436
Bacolod,Bacolod,10.6765,122.9509,Philippines,PH,1608244137
Zhuozhou,Zhuozhou,39.4887,115.9918,China,CN,1156045160
Uberlândia,Uberlandia,-18.9189,-48.2769,Brazil,BR,1076495001
Tianchang,Tianchang,32.6853,119.0041,China,CN,1156770851
Kawaguchi,Kawaguchi,35.8078,139.7242,Japan,JP,1392975133
Itabashi,Itabashi,35.7667,139.6833,Japan,JP,1392836404
Suginami-ku,Suginami-ku,35.6833,139.6167,Japan,JP,1392003090
Tuxtla,Tuxtla,16.7528,-93.1167,Mexico,MX,1484832519
Tumkūr,Tumkur,13.3422,77.1017,India,IN,1356033724
Leipzig,Leipzig,51.3333,12.3833,Germany,DE,1276563678
Balikpapan,Balikpapan,-1.1489,116.9031,Indonesia,ID,1360500922
Qamdo,Qamdo,31.1375,97.1777,China,CN,1156277802
Durban,Durban,-29.8583,31.0250,South Africa,ZA,1710149138
Chānda,Chanda,19.9500,79.3000,India,IN,1356592607
Kagoshima,Kagoshima,31.5800,130.5281,Japan,JP,1392120675
Al Ḩillah,Al Hillah,23.4895,46.7564,Saudi Arabia,SA,1682494753
Makhachkala,Makhachkala,42.9833,47.4833,Russia,RU,1643580480
Sihui,Sihui,23.3448,112.6956,China,CN,1156609451
Mar del Plata,Mar del Plata,-38.0000,-57.5500,Argentina,AR,1032456103
Irapuato,Irapuato,20.6667,-101.3500,Mexico,MX,1484625454
Brampton,Brampton,43.6833,-79.7667,Canada,CA,1124625989
Luocheng,Luocheng,30.9793,104.2800,China,CN,1156180482
Pereira,Pereira,4.8143,-75.6946,Colombia,CO,1170386718
Mission Viejo,Mission Viejo,33.6095,-117.6550,United States,US,1840020580
Dortmund,Dortmund,51.5139,7.4653,Germany,DE,1276562886
Reynosa,Reynosa,26.0922,-98.2778,Mexico,MX,1484737671
Chuxiong,Chuxiong,25.0461,101.5436,China,CN,1156225985
Zāhedān,Zahedan,29.4833,60.8667,Iran,IR,1364072353
Jinhua,Jinhua,29.1046,119.6494,China,CN,1156547188
Albany,Albany,42.6664,-73.7987,United States,US,1840000417
Shah Alam,Shah Alam,3.0833,101.5333,Malaysia,MY,1458194263
Knoxville,Knoxville,35.9692,-83.9496,United States,US,1840014486
Cuiabá,Cuiaba,-15.5958,-56.0969,Brazil,BR,1076112309
Shangzhi,Shangzhi,45.2116,127.9620,China,CN,1156107332
Essen,Essen,51.4508,7.0131,Germany,DE,1276769247
Botou,Botou,38.0740,116.5700,China,CN,1156018338
Bucaramanga,Bucaramanga,7.1186,-73.1161,Colombia,CO,1170940590
Anyang,Anyang,37.3925,126.9269,South Korea,KR,1410581095
Genoa,Genoa,44.4072,8.9340,Italy,IT,1380716540
Port Sudan,Port Sudan,19.6158,37.2164,Sudan,SD,1729710259
Puente Alto,Puente Alto,-33.6167,-70.5833,Chile,CL,1152516346
Dehra Dūn,Dehra Dun,30.3180,78.0290,India,IN,1356970407
Aţ Ţā’if,At Ta'if,21.2667,40.4167,Saudi Arabia,SA,1682956102
Bakersfield,Bakersfield,35.3529,-119.0359,United States,US,1840019148
Wancheng,Wancheng,18.8000,110.4000,China,CN,1156017483
Málaga,Malaga,36.7194,-4.4200,Spain,ES,1724397372
Hachiōji,Hachioji,35.6667,139.3167,Japan,JP,1392172935
Ogden,Ogden,41.2278,-111.9682,United States,US,1840020135
Xiulin,Xiulin,29.7211,112.4037,China,CN,1156284109
Fu’an,Fu'an,27.1000,119.6333,China,CN,1156244234
Tomsk,Tomsk,56.4886,84.9522,Russia,RU,1643258928
Tonalá,Tonala,20.6167,-103.2333,Mexico,MX,1484750897
Kumul,Kumul,42.8322,93.5155,China,CN,1156131545
Bristol,Bristol,51.4500,-2.5833,United Kingdom,GB,1826921049
Luofeng,Luofeng,37.3590,120.3960,China,CN,1156158643
Lingyuan,Lingyuan,41.2407,119.3957,China,CN,1156184681
Irbid,Irbid,32.5556,35.8500,Jordan,JO,1400221568
Baton Rouge,Baton Rouge,30.4418,-91.1310,United States,US,1840013941
Huzhou,Huzhou,30.8695,120.0958,China,CN,1156335543
Wencheng,Wencheng,19.6167,110.7500,China,CN,1156985313
Bremen,Bremen,53.0769,8.8089,Germany,DE,1276376509
Ciudad Bolívar,Ciudad Bolivar,8.1167,-63.5500,Venezuela,VE,1862318264
Durgāpur,Durgapur,23.5500,87.3200,India,IN,1356045686
Orenburg,Orenburg,51.7667,55.1000,Russia,RU,1643685056
Shenzhou,Shenzhou,38.0005,115.5541,China,CN,1156921843
Āsansol,Asansol,23.6833,86.9667,India,IN,1356093694
Akron,Akron,41.0798,-81.5219,United States,US,1840000791
Kuiju,Kuiju,36.8528,119.3904,China,CN,1156174997
New Haven,New Haven,41.3112,-72.9246,United States,US,1840004850
Zhenzhou,Zhenzhou,32.2739,119.1619,China,CN,1156634387
Surakarta,Surakarta,-7.5667,110.8167,Indonesia,ID,1360853933
Jieshou,Jieshou,33.2605,115.3618,China,CN,1156304827
Benguela,Benguela,-12.5500,13.4167,Angola,AO,1024141961
Ensenada,Ensenada,31.8578,-116.6058,Mexico,MX,1484714297
Dangyang,Dangyang,30.8258,111.7910,China,CN,1156585505
Columbia,Columbia,34.0376,-80.9037,United States,US,1840014730
Kemerovo,Kemerovo,55.3333,86.0667,Russia,RU,1643216311
Herāt,Herat,34.3738,62.1792,Afghanistan,AF,1004237782
Dresden,Dresden,51.0500,13.7400,Germany,DE,1276561036
Bhāvnagar,Bhavnagar,21.7650,72.1369,India,IN,1356982375
Juiz de Fora,Juiz de Fora,-21.7500,-43.3500,Brazil,BR,1076006144
Luanzhou,Luanzhou,39.7396,118.6978,China,CN,1156092104
Hamadān,Hamadan,34.8000,48.5167,Iran,IR,1364126377
Novokuznetsk,Novokuznetsk,53.7500,87.1167,Russia,RU,1643628717
Nellore,Nellore,14.4333,79.9667,India,IN,1356280972
Chiclayo,Chiclayo,-6.7630,-79.8366,Peru,PE,1604799615
Manchester,Manchester,53.4794,-2.2453,United Kingdom,GB,1826246335
Al Ḩudaydah,Al Hudaydah,14.8022,42.9511,Yemen,YE,1887984890
Amrāvati,Amravati,20.9333,77.7500,India,IN,1356462099
Cabinda,Cabinda,-5.5667,12.2000,Angola,AO,1024474012
Korla,Korla,41.7646,86.1527,China,CN,1156965620
Huanghua,Huanghua,38.3710,117.3329,China,CN,1156131099
Muntinlupa City,Muntinlupa City,14.3833,121.0500,Philippines,PH,1608473406
Londrina,Londrina,-23.3100,-51.1628,Brazil,BR,1076723241
Tabūk,Tabuk,28.3838,36.5550,Saudi Arabia,SA,1682590992
Heroica Matamoros,Heroica Matamoros,25.8797,-97.5042,Mexico,MX,1484614906
Samarkand,Samarkand,39.6542,66.9597,Uzbekistan,UZ,1860388706
Xingcheng,Xingcheng,40.6189,120.7205,China,CN,1156705922
Kaiyuan,Kaiyuan,42.5380,124.0371,China,CN,1156081841
Hannover,Hannover,52.3744,9.7386,Germany,DE,1276457707
Valledupar,Valledupar,10.4603,-73.2597,Colombia,CO,1170481949
Fengcheng,Fengcheng,40.4543,124.0646,China,CN,1156519626
Ajmer,Ajmer,26.4680,74.6390,India,IN,1356058258
Ghulja,Ghulja,43.9000,81.3500,China,CN,1156064979
Tinnevelly,Tinnevelly,8.7289,77.7081,India,IN,1356037155
City of Calamba,City of Calamba,14.2167,121.1667,Philippines,PH,1608985581
Xiangyang,Xiangyang,34.2999,108.4816,China,CN,1156215566
Fuding,Fuding,27.2000,120.2000,China,CN,1156530120
An Nāşirīyah,An Nasiriyah,31.0439,46.2575,Iraq,IQ,1368273311
Al Ḩillah,Al Hillah,32.4833,44.4333,Iraq,IQ,1368916692
Ibagué,Ibague,4.4378,-75.2006,Colombia,CO,1170245063
Ryazan,Ryazan,54.6167,39.7167,Russia,RU,1643205787
Kassala,Kassala,15.4500,36.4000,Sudan,SD,1729157224
Chang’an,Chang'an,29.4761,113.4480,China,CN,1156139784
Kermān,Kerman,30.2833,57.0667,Iran,IR,1364554896
Kōtō-ku,Koto-ku,35.6667,139.8167,Japan,JP,1392003346
Poznań,Poznan,52.4083,16.9336,Poland,PL,1616725607
Aksu,Aksu,41.1664,80.2500,China,CN,1156436913
Salta,Salta,-24.7883,-65.4106,Argentina,AR,1032926124
Astrakhan,Astrakhan,46.3333,48.0167,Russia,RU,1643407929
Wuhai,Wuhai,39.6844,106.8158,China,CN,1156575615
Mingguang,Mingguang,32.7816,117.9899,China,CN,1156864248
Naberezhnyye Chelny,Naberezhnyye Chelny,55.7000,52.3333,Russia,RU,1643008493
Antwerp,Antwerp,51.2211,4.3997,Belgium,BE,1056168623
Touba,Touba,14.8667,-15.8833,Senegal,SN,1686956738
Ardabīl,Ardabil,38.2500,48.3000,Iran,IR,1364437616
Bīkaner,Bikaner,28.0181,73.3169,India,IN,1356026593
Lyon,Lyon,45.7600,4.8400,France,FR,1250196189
Agartala,Agartala,23.8333,91.2667,India,IN,1356148992
Ndola,Ndola,-12.9683,28.6337,Zambia,ZM,1894032745
Himeji,Himeji,34.8167,134.6833,Japan,JP,1392003149
Tultitlán de Mariano Escobedo,Tultitlan de Mariano Escobedo,19.6450,-99.1694,Mexico,MX,1484562374
Villavicencio,Villavicencio,4.1425,-73.6294,Colombia,CO,1170426927
Ailan Mubage,Ailan Mubage,43.9167,81.3167,China,CN,1156279608
Bandar ‘Abbās,Bandar `Abbas,27.2000,56.2500,Iran,IR,1364120623
Bắc Ninh,Bac Ninh,21.1861,106.0763,Vietnam,VN,1704025181
Ciudad Apodaca,Ciudad Apodaca,25.7833,-100.1833,Mexico,MX,1484855080
Santa Teresa del Tuy,Santa Teresa del Tuy,10.2333,-66.6500,Venezuela,VE,1862528581
Maipú,Maipu,-33.5167,-70.7667,Chile,CL,1152583016
Penza,Penza,53.2000,45.0000,Russia,RU,1643492830
Soacha,Soacha,4.5781,-74.2144,Colombia,CO,1170512000
Port Said,Port Said,31.2500,32.2833,Egypt,EG,1818628574
Yucheng,Yucheng,36.9329,116.6403,China,CN,1156530681
Meknès,Meknes,33.8833,-5.5500,Morocco,MA,1504333193
Arāk,Arak,34.0800,49.7000,Iran,IR,1364624691
Pohang,Pohang,36.0322,129.3650,South Korea,KR,1410983252
Longzhou,Longzhou,30.3200,112.2300,China,CN,1156863928
Anda,Anda,46.4078,125.3252,China,CN,1156142150
Jinghong,Jinghong,22.0057,100.7948,China,CN,1156181533
Sheffield,Sheffield,53.3808,-1.4703,United Kingdom,GB,1826289852
Utsunomiya,Utsunomiya,36.5500,139.8833,Japan,JP,1392506125
Suez,Suez,29.9667,32.5333,Egypt,EG,1818495972
Nuremberg,Nuremberg,49.4539,11.0775,Germany,DE,1276166609
Liverpool,Liverpool,53.4075,-2.9919,United Kingdom,GB,1826558678
Mesa,Mesa,33.4017,-111.7180,United States,US,1840020566
Surrey,Surrey,49.1900,-122.8489,Canada,CA,1124001454
Heshan,Heshan,22.7697,112.9578,China,CN,1156013872
Zhoushan,Zhoushan,29.9887,122.2049,China,CN,1156200283
Ujjain,Ujjain,23.1828,75.7772,India,IN,1356050735
Jiaji,Jiaji,19.2431,110.4642,China,CN,1156658217
Santa Marta,Santa Marta,11.2361,-74.2017,Colombia,CO,1170715594
Joinvile,Joinvile,-26.3039,-48.8458,Brazil,BR,1076050637
Beining,Beining,41.5961,121.7928,China,CN,1156424678
Hải Dương,Hai Duong,20.9399,106.3309,Vietnam,VN,1704909566
Carrefour,Carrefour,18.5333,-72.4000,Haiti,HT,1332000098
Maturín,Maturin,9.7457,-63.1832,Venezuela,VE,1862546949
Homyel’,Homyel',52.4417,30.9833,Belarus,BY,1112580227
Ananindeua,Ananindeua,-1.3658,-48.3719,Brazil,BR,1076025295
Yanji,Yanji,42.9044,129.5067,China,CN,1156405468
Yicheng,Yicheng,31.7117,112.2551,China,CN,1156742818
Ulhāsnagar,Ulhasnagar,19.2167,73.1500,India,IN,1356375341
Lipetsk,Lipetsk,52.6167,39.6000,Russia,RU,1643772906
Al ‘Amārah,Al `Amarah,31.8333,47.1500,Iraq,IQ,1368336235
Choloma,Choloma,15.6333,-88.0000,Honduras,HN,1340125981
Sevastopol,Sevastopol,44.6000,33.5333,Ukraine,UA,1804806030
Encheng,Encheng,22.1879,112.3131,China,CN,1156653230
Aden,Aden,12.8000,45.0333,Yemen,YE,1887867886
Kitwe,Kitwe,-12.8208,28.2119,Zambia,ZM,1894321752
Matsuyama,Matsuyama,33.8333,132.7667,Japan,JP,1392220893
Jhānsi,Jhansi,25.4486,78.5696,India,IN,1356712664
Kashgar,Kashgar,39.4500,75.9833,China,CN,1156113193
Palm Bay,Palm Bay,27.9550,-80.6627,United States,US,1840015094
Pingtung,Pingtung,22.6761,120.4942,Taiwan,TW,1158209038
Lapu-Lapu City,Lapu-Lapu City,10.3127,123.9488,Philippines,PH,1608430676
Montería,Monteria,8.7600,-75.8856,Colombia,CO,1170855299
Ichikawa,Ichikawa,35.7219,139.9311,Japan,JP,1392076347
Imus,Imus,14.4297,120.9367,Philippines,PH,1608802508
Davangere,Davangere,14.4667,75.9167,India,IN,1356445061
Jammu,Jammu,32.7333,74.8500,India,IN,1356491738
Yiwu,Yiwu,29.3081,120.0698,China,CN,1156078044
Belas,Belas,-9.0689,13.1608,Angola,AO,1024196826
Talatona,Talatona,-8.9167,13.1833,Angola,AO,1024988332
Ile-Ife,Ile-Ife,7.4667,4.5667,Nigeria,NG,1566756897
Kirov,Kirov,58.6000,49.6500,Russia,RU,1643106064
Jiaxing,Jiaxing,30.7522,120.7500,China,CN,1156491661
Mykolaiv,Mykolaiv,46.9667,32.0000,Ukraine,UA,1804398395
Provo,Provo,40.2457,-111.6457,United States,US,1840020174
Meicheng,Meicheng,30.6412,116.5689,China,CN,1156136207
Niterói,Niteroi,-22.8833,-43.1036,Brazil,BR,1076501425
Matsudo,Matsudo,35.7878,139.9031,Japan,JP,1392642525
Sukkur,Sukkur,27.6995,68.8673,Pakistan,PK,1586383591
Oujda-Angad,Oujda-Angad,34.6867,-1.9114,Morocco,MA,1504891036
Taozhou,Taozhou,30.8956,119.4110,China,CN,1156438524
Higashi-ōsaka,Higashi-osaka,34.6794,135.6008,Japan,JP,1392117396
Johor Bahru,Johor Bahru,1.4556,103.7611,Malaysia,MY,1458747615
Worcester,Worcester,42.2705,-71.8079,United States,US,1840000434
Hongjiang,Hongjiang,27.1167,109.9500,China,CN,1156039152
Chimbote,Chimbote,-9.0745,-78.5936,Peru,PE,1604199858
Duisburg,Duisburg,51.4322,6.7611,Germany,DE,1276977172
Qaraghandy,Qaraghandy,49.8000,73.1167,Kazakhstan,KZ,1398274508
Ixtapaluca,Ixtapaluca,19.3186,-98.8822,Mexico,MX,1484452937
Dengtacun,Dengtacun,41.4237,123.3203,China,CN,1156096868
Zhijiang,Zhijiang,30.4271,111.7506,China,CN,1156769646
Chengjiao,Chengjiao,35.4043,114.0593,China,CN,1156571332
Beipiao,Beipiao,41.8020,120.7621,China,CN,1156378599
Suoluntun,Suoluntun,45.1804,124.8200,China,CN,1156764587
Murrieta,Murrieta,33.5720,-117.1909,United States,US,1840020553
Kota Bharu,Kota Bharu,6.1333,102.2500,Malaysia,MY,1458150101
Ciudad López Mateos,Ciudad Lopez Mateos,19.5500,-99.2833,Mexico,MX,1484363879
Celaya,Celaya,20.5222,-100.8122,Mexico,MX,1484979555
Vinh,Vinh,18.6733,105.6922,Vietnam,VN,1704960059
Duyun,Duyun,26.2672,107.5143,China,CN,1156084618
Los Mochis,Los Mochis,25.7835,-108.9937,Mexico,MX,1484443585
Nyala,Nyala,12.0500,24.8833,Sudan,SD,1729833248
Larkana,Larkana,27.5600,68.2264,Pakistan,PK,1586678302
Nishinomiya-hama,Nishinomiya-hama,34.7333,135.3333,Japan,JP,1392114116
‘Ajmān,`Ajman,25.3994,55.4797,United Arab Emirates,AE,1784337875
Cheboksary,Cheboksary,56.1333,47.2500,Russia,RU,1643163382
Yuanping,Yuanping,38.7299,112.7134,China,CN,1156294277
Toulouse,Toulouse,43.6045,1.4440,France,FR,1250258110
Edinburgh,Edinburgh,55.9530,-3.1890,United Kingdom,GB,1826492520
Belgaum,Belgaum,15.8667,74.5000,India,IN,1356390535
Tula,Tula,54.2000,37.6167,Russia,RU,1643255206
Shahe,Shahe,36.8622,114.5020,China,CN,1156690538
Serra,Serra,-20.1289,-40.3078,Brazil,BR,1076191325
Gaoping,Gaoping,35.7911,112.9259,China,CN,1156238773
Greenville,Greenville,34.8353,-82.3647,United States,US,1840013501
Gulbarga,Gulbarga,17.3333,76.8333,India,IN,1356091187
Dunhua,Dunhua,43.3667,128.2333,China,CN,1156058709
Brookhaven,Brookhaven,40.8321,-72.9518,United States,US,1840057464
Az Zarqā’,Az Zarqa',32.0833,36.1000,Jordan,JO,1400161837
Sylhet,Sylhet,24.9000,91.8667,Bangladesh,BD,1050646703
Wichita,Wichita,37.6896,-97.3442,United States,US,1840001686
Toledo,Toledo,41.6639,-83.5822,United States,US,1840000572
Kaihua,Kaihua,23.3715,104.2437,China,CN,1156017759
Jāmnagar,Jamnagar,22.4700,70.0700,India,IN,1356104995
Fuyuan,Fuyuan,48.3614,134.2875,China,CN,1156196485
Dhūlia,Dhulia,20.9000,74.7833,India,IN,1356224695
Gaya,Gaya,24.7500,85.0167,India,IN,1356045727
Florianópolis,Florianopolis,-27.5933,-48.5530,Brazil,BR,1076190259
Chiniot,Chiniot,31.7167,72.9833,Pakistan,PK,1586413435
Jiannan,Jiannan,31.3446,104.1994,China,CN,1156155414
Ōita,Oita,33.2333,131.6067,Japan,JP,1392081193
Kaliningrad,Kaliningrad,54.7167,20.5000,Russia,RU,1643178106
Nangong,Nangong,37.3606,115.3803,China,CN,1156426803
Kurashiki,Kurashiki,34.5850,133.7719,Japan,JP,1392003246
Staten Island,Staten Island,40.5834,-74.1496,United States,US,1840034032
Küçükçekmece,Kucukcekmece,41.0000,28.8000,Turkey,TR,1792992349
San Juan,San Juan,-31.5375,-68.5364,Argentina,AR,1032869625
Vila Velha,Vila Velha,-20.3364,-40.2936,Brazil,BR,1076404077
Mazār-e Sharīf,Mazar-e Sharif,36.7000,67.1167,Afghanistan,AF,1004436363
Macapá,Macapa,0.0330,-51.0653,Brazil,BR,1076189884
Shekhupura,Shekhupura,31.7083,74.0000,Pakistan,PK,1586291726
Des Moines,Des Moines,41.5725,-93.6105,United States,US,1840007069
Piura,Piura,-5.2008,-80.6253,Peru,PE,1604331641
Mandaluyong City,Mandaluyong City,14.5833,121.0333,Philippines,PH,1608166320
Jiaojiangcun,Jiaojiangcun,28.6804,121.4500,China,CN,1156812073
Laohekou,Laohekou,32.3849,111.6695,China,CN,1156791804
Kâğıthane,Kagithane,41.0719,28.9664,Turkey,TR,1792526380
Angeles City,Angeles City,15.1472,120.5847,Philippines,PH,1608036027
Pasay City,Pasay City,14.5500,121.0000,Philippines,PH,1608448280
Beian,Beian,48.2395,126.5037,China,CN,1156084414
Fujin,Fujin,47.2489,132.0341,China,CN,1156404715
Leicester,Leicester,52.6344,-1.1319,United Kingdom,GB,1826431946
Xiaoyi,Xiaoyi,37.1449,111.7718,China,CN,1156910270
Lanús,Lanus,-34.7000,-58.4000,Argentina,AR,1032009573
Qingzhen,Qingzhen,26.5555,106.4646,China,CN,1156587033
Ba‘qūbah,Ba`qubah,33.7447,44.6436,Iraq,IQ,1368444902
Katsushika-ku,Katsushika-ku,35.7333,139.8500,Japan,JP,1392003368
Buraydah,Buraydah,26.3333,43.9667,Saudi Arabia,SA,1682470726
Gdańsk,Gdansk,54.3667,18.6333,Poland,PL,1616406372
Marikina City,Marikina City,14.6500,121.1000,Philippines,PH,1608000077
Manado,Manado,1.4931,124.8413,Indonesia,ID,1360771278
Campos,Campos,-21.7539,-41.3239,Brazil,BR,1076606365
Calabar,Calabar,4.9500,8.3250,Nigeria,NG,1566495489
Kanazawa,Kanazawa,36.5611,136.6565,Japan,JP,1392684679
Iloilo,Iloilo,10.7167,122.5667,Philippines,PH,1608875987
Long Beach,Long Beach,33.7981,-118.1675,United States,US,1840020490
Kuqa,Kuqa,41.7152,82.9604,China,CN,1156894895
Jalgaon,Jalgaon,21.0167,75.5667,India,IN,1356734842
Cranbourne,Cranbourne,-38.0996,145.2834,Australia,AU,1036685862
Port St. Lucie,Port St. Lucie,27.2796,-80.3883,United States,US,1840015119
Murcia,Murcia,37.9861,-1.1303,Spain,ES,1724107739
Mauá,Maua,-23.6678,-46.4608,Brazil,BR,1076477498
Fukuyama,Fukuyama,34.4858,133.3625,Japan,JP,1392551602
Tel Aviv-Yafo,Tel Aviv-Yafo,32.0800,34.7800,Israel,IL,1376401542
Xicheng,Xicheng,23.3629,103.1545,China,CN,1156161838
Amagasaki,Amagasaki,34.7333,135.4000,Japan,JP,1392003182
Pyeongtaek,Pyeongtaek,36.9947,127.0889,South Korea,KR,1410641095
Kurnool,Kurnool,15.8222,78.0350,India,IN,1356058372
Denton,Denton,33.2176,-97.1419,United States,US,1840019390
Melaka,Melaka,2.1889,102.2511,Malaysia,MY,1458467506
Taoyuan District,Taoyuan District,24.9889,121.3111,Taiwan,TW,1158127875
General Trias,General Trias,14.3833,120.8833,Philippines,PH,1608826995
Jian’ou,Jian'ou,27.0387,118.3215,China,CN,1156278784
Huadian,Huadian,42.9633,126.7478,China,CN,1156018839
Ţanţā,Tanta,30.7833,31.0000,Egypt,EG,1818501770
Kota Kinabalu,Kota Kinabalu,5.9750,116.0725,Malaysia,MY,1458441859
Minzhu,Minzhu,43.7192,127.3370,China,CN,1156295044
Bukavu,Bukavu,-2.4908,28.8428,Congo (Kinshasa),CD,1180475821
Rājshāhi,Rajshahi,24.3667,88.6000,Bangladesh,BD,1050547831
Balashikha,Balashikha,55.8000,37.9500,Russia,RU,1643989845
Udaipur,Udaipur,24.5833,73.6833,India,IN,1356266094
Kursk,Kursk,51.7372,36.1872,Russia,RU,1643011077
Mariupol,Mariupol,47.1306,37.5639,Ukraine,UA,1804630021
Eslāmshahr,Eslamshahr,35.5522,51.2350,Iran,IR,1364870126
San Nicolás de los Garza,San Nicolas de los Garza,25.7500,-100.2833,Mexico,MX,1484264138
Hsinchu,Hsinchu,24.8047,120.9714,Taiwan,TW,1158276420
Barcelona,Barcelona,10.1333,-64.6833,Venezuela,VE,1862418619
Constantine,Constantine,36.3650,6.6147,Algeria,DZ,1012275076
Tanbei,Tanbei,35.0907,112.9317,China,CN,1156690688
Ado-Ekiti,Ado-Ekiti,7.6167,5.2167,Nigeria,NG,1566196391
Madison,Madison,43.0826,-89.3931,United States,US,1840002915
Bellary,Bellary,15.1500,76.9150,India,IN,1356209152
Rodriguez,Rodriguez,14.7167,121.1167,Philippines,PH,1608543530
Santiago de Cuba,Santiago de Cuba,20.0217,-75.8294,Cuba,CU,1192766111
Yongji,Yongji,34.8670,110.4417,China,CN,1156001205
Reno,Reno,39.5497,-119.8483,United States,US,1840020121
Danjiangkou,Danjiangkou,32.5408,111.5098,China,CN,1156347994
São José do Rio Prêto,Sao Jose do Rio Preto,-20.8200,-49.3789,Brazil,BR,1076760827
Fujisawa,Fujisawa,35.3388,139.4911,Japan,JP,1392640771
Andijon,Andijon,40.7000,72.3500,Uzbekistan,UZ,1860445095
Harrisburg,Harrisburg,40.2752,-76.8843,United States,US,1840001288
Machida,Machida,35.5486,139.4467,Japan,JP,1392788615
Ning’an,Ning'an,44.3439,129.4656,China,CN,1156629205
Little Rock,Little Rock,34.7256,-92.3576,United States,US,1840015509
Zhangjiakou Shi Xuanhua Qu,Zhangjiakou Shi Xuanhua Qu,40.5944,115.0243,China,CN,1156240430
Zürich,Zurich,47.3744,8.5411,Switzerland,CH,1756539143
Sunch’ŏn,Sunch'on,39.4167,125.9333,North Korea,KP,1408510801
Jinchang,Jinchang,38.5168,102.1866,China,CN,1156184861
Kashiwa,Kashiwa,35.8544,139.9689,Japan,JP,1392133166
Guangming,Guangming,45.3357,122.7765,China,CN,1156955625
Sāngli,Sangli,16.8667,74.5667,India,IN,1356921375
Tuticorin,Tuticorin,8.7833,78.1333,India,IN,1356751023
Beira,Beira,-19.8333,34.8500,Mozambique,MZ,1508407369
Kupang,Kupang,-10.1633,123.5778,Indonesia,ID,1360696757
Jeju,Jeju,33.5097,126.5219,South Korea,KR,1410364424
Caxias do Sul,Caxias do Sul,-29.1678,-51.1789,Brazil,BR,1076809957
Santos,Santos,-23.9608,-46.3339,Brazil,BR,1076033299
Manizales,Manizales,5.0661,-75.4847,Colombia,CO,1170930654
Stavropol,Stavropol,45.0500,41.9833,Russia,RU,1643947228
Yogyakarta,Yogyakarta,-7.8014,110.3644,Indonesia,ID,1360384833
Calicut,Calicut,11.2500,75.7667,India,IN,1356010401
Veracruz,Veracruz,19.1903,-96.1533,Mexico,MX,1484992153
Zanjān,Zanjan,36.6667,48.4833,Iran,IR,1364312712
Cusco,Cusco,-13.5222,-71.9833,Peru,PE,1604162901
Welkom,Welkom,-27.9831,26.7208,South Africa,ZA,1710480365
Ulan-Ude,Ulan-Ude,51.8272,107.6064,Russia,RU,1643774900
Oakland,Oakland,37.7903,-122.2165,United States,US,1840020296
Shinagawa-ku,Shinagawa-ku,35.6000,139.7333,Japan,JP,1392003304
Kāshān,Kashan,33.9833,51.4333,Iran,IR,1364006067
Kenitra,Kenitra,34.2500,-6.5833,Morocco,MA,1504534876
Uyo,Uyo,5.0500,7.9333,Nigeria,NG,1566061694
Sokoto,Sokoto,13.0622,5.2339,Nigeria,NG,1566574518
Masan,Masan,35.1833,128.5500,South Korea,KR,1410394650
Sidi Bouzid,Sidi Bouzid,35.0381,9.4858,Tunisia,TN,1788196439
Porto Velho,Porto Velho,-8.7619,-63.9039,Brazil,BR,1076045591
Sihŭng,Sihung,37.3803,126.8030,South Korea,KR,1410313432
Xalapa,Xalapa,19.5400,-96.9275,Mexico,MX,1484334948
Florencio Varela,Florencio Varela,-34.8167,-58.2833,Argentina,AR,1032730758
Uijeongbu,Uijeongbu,37.7486,127.0389,South Korea,KR,1410888678
Akola,Akola,20.7333,77.0000,India,IN,1356089496
Aomori,Aomori,40.8222,140.7475,Japan,JP,1392083898
Yan’an Beilu,Yan'an Beilu,44.0222,87.2961,China,CN,1156048097
Agadir,Agadir,30.4167,-9.5833,Morocco,MA,1504116858
Mogi das Cruzes,Mogi das Cruzes,-23.5228,-46.1931,Brazil,BR,1076857883
Durham,Durham,35.9794,-78.9031,United States,US,1840013364
Diadema,Diadema,-23.6858,-46.6228,Brazil,BR,1076867279
Likasi,Likasi,-10.9833,26.7333,Congo (Kinshasa),CD,1180978192
Buenaventura,Buenaventura,3.8772,-77.0267,Colombia,CO,1170287988
Yazd,Yazd,31.8972,54.3678,Iran,IR,1364429875
Laval,Laval,45.5833,-73.7500,Canada,CA,1124922301
Toyota,Toyota,35.0833,137.1567,Japan,JP,1392498272
Santa Rosa,Santa Rosa,14.3167,121.1167,Philippines,PH,1608571683
Winston-Salem,Winston-Salem,36.1029,-80.2611,United States,US,1840015324
Tver,Tver,56.8578,35.9219,Russia,RU,1643456559
Elazığ,Elazig,38.6667,39.2167,Turkey,TR,1792156766
Hpa-An,Hpa-An,16.8906,97.6333,Myanmar,MM,1104494124
Palma,Palma,39.5667,2.6500,Spain,ES,1724728111
Bonita Springs,Bonita Springs,26.3559,-81.7861,United States,US,1840014227
Mishan,Mishan,45.5420,131.8666,China,CN,1156267144
Hailin,Hailin,44.5735,129.3825,China,CN,1156267191
Seremban,Seremban,2.7297,101.9381,Malaysia,MY,1458051507
Lecheng,Lecheng,25.1307,113.3472,China,CN,1156612198
Zhengjiatun,Zhengjiatun,43.5130,123.5003,China,CN,1156759747
Luhansk,Luhansk,48.5833,39.3333,Ukraine,UA,1804688214
Pencheng,Pencheng,29.6792,115.6611,China,CN,1156147187
Magnitogorsk,Magnitogorsk,53.3833,59.0333,Russia,RU,1643987830
Takamatsu,Takamatsu,34.3500,134.0500,Japan,JP,1392427161
El Obeid,El Obeid,13.1833,30.2167,Sudan,SD,1729215531
Dalai,Dalai,45.5050,124.2863,China,CN,1156912899
Xingren,Xingren,25.4352,105.1907,China,CN,1156533633
Kolwezi,Kolwezi,-10.7167,25.4667,Congo (Kinshasa),CD,1180380965
Wenlan,Wenlan,23.3689,103.3881,China,CN,1156385754
Indio,Indio,33.7346,-116.2346,United States,US,1840019304
Palm Coast,Palm Coast,29.5392,-81.2460,United States,US,1840015064
Biñan,Binan,14.3333,121.0833,Philippines,PH,1608039268
Arusha,Arusha,-3.3667,36.6833,Tanzania,TZ,1834484937
Fenyang,Fenyang,37.2652,111.7793,China,CN,1156455704
Paju,Paju,37.8328,126.8169,South Korea,KR,1410365324
Mataram,Mataram,-8.5833,116.1167,Indonesia,ID,1360021952
Chattanooga,Chattanooga,35.0657,-85.2488,United States,US,1840014569
Kisumu,Kisumu,-0.1000,34.7500,Kenya,KE,1404511920
Jhang City,Jhang City,31.2681,72.3181,Pakistan,PK,1586288677
Nagqu,Nagqu,31.4766,92.0569,China,CN,1156260844
Jayapura,Jayapura,-2.5333,140.7167,Indonesia,ID,1360517692
Rio Branco,Rio Branco,-9.9781,-67.8117,Brazil,BR,1076391263
Toyama,Toyama,36.7000,137.2200,Japan,JP,1392000560
Fangting,Fangting,31.1282,104.1695,China,CN,1156384608
Sanandaj,Sanandaj,35.3097,46.9989,Iran,IR,1364178783
Linghai,Linghai,41.1676,121.3558,China,CN,1156081300
Toyonaka,Toyonaka,34.7833,135.4667,Japan,JP,1392003256
Spokane,Spokane,47.6671,-117.4330,United States,US,1840021093
Sochi,Sochi,43.5853,39.7203,Russia,RU,1643009782
Bhāgalpur,Bhagalpur,25.2500,87.0167,India,IN,1356760990
Ivanovo,Ivanovo,57.0000,41.0000,Russia,RU,1643297945
Türkmenabat,Turkmenabat,39.1000,63.5667,Turkmenistan,TM,1795079064
Zaria,Zaria,11.0667,7.7000,Nigeria,NG,1566287704
Bryansk,Bryansk,53.2500,34.3667,Russia,RU,1643208827
Asyūţ,Asyut,27.1869,31.1714,Egypt,EG,1818456592
Taiping,Taiping,32.0691,108.0351,China,CN,1156077074
Mbale,Mbale,1.0806,34.1750,Uganda,UG,1800265900
Maracay,Maracay,10.2469,-67.5958,Venezuela,VE,1862284350
Jiexiu,Jiexiu,37.0282,111.9103,China,CN,1156275703
Santa Fe,Santa Fe,-31.6333,-60.7000,Argentina,AR,1032817575
Campina Grande,Campina Grande,-7.2306,-35.8811,Brazil,BR,1076218697
Nagasaki,Nagasaki,32.7833,129.8667,Japan,JP,1392162566
Szczecin,Szczecin,53.4247,14.5553,Poland,PL,1616256546
Syracuse,Syracuse,43.0409,-76.1438,United States,US,1840000378
Maringá,Maringa,-23.4250,-51.9389,Brazil,BR,1076013378
Carapicuíba,Carapicuiba,-23.5228,-46.8358,Brazil,BR,1076874103
Qazvīn,Qazvin,36.2688,50.0041,Iran,IR,1364073420
Quilon,Quilon,8.8853,76.5864,India,IN,1356304110
Jundiaí,Jundiai,-23.1864,-46.8842,Brazil,BR,1076998392
Hirakata,Hirakata,34.8167,135.6500,Japan,JP,1392999987
Gifu,Gifu,35.4167,136.7667,Japan,JP,1392097787
Lancaster,Lancaster,40.0421,-76.3012,United States,US,1840003718
Sīkar,Sikar,27.6119,75.1397,India,IN,1356163729
Jiangjiafan,Jiangjiafan,31.0304,112.1000,China,CN,1156352568
Dera Ghazi Khan,Dera Ghazi Khan,30.0500,70.6333,Pakistan,PK,1586002238
Mwanza,Mwanza,-2.5167,32.9000,Tanzania,TZ,1834011288
Arlington,Arlington,32.6998,-97.1250,United States,US,1840019422
Xushan,Xushan,30.1697,121.2665,China,CN,1156046916
Miyazaki,Miyazaki,31.9167,131.4167,Japan,JP,1392216224
Yuyao,Yuyao,30.0372,121.1546,China,CN,1156221984
Stockton,Stockton,37.9765,-121.3109,United States,US,1840021517
Bhātpāra,Bhatpara,22.8667,88.4167,India,IN,1356022456
Sandakan,Sandakan,5.8388,118.1173,Malaysia,MY,1458405180
Taytay,Taytay,14.5692,121.1325,Philippines,PH,1608530771
Hejin,Hejin,35.5914,110.7060,China,CN,1156225234
Thanh Hóa,Thanh Hoa,19.8075,105.7764,Vietnam,VN,1704016079
Minamisuita,Minamisuita,34.7667,135.5167,Japan,JP,1392948850
Poughkeepsie,Poughkeepsie,41.6949,-73.9210,United States,US,1840000500
Yokosuka,Yokosuka,35.2500,139.6667,Japan,JP,1392003389
Nha Trang,Nha Trang,12.2495,109.1908,Vietnam,VN,1704497901
Belgorod,Belgorod,50.6000,36.6000,Russia,RU,1643407900
Malabon,Malabon,14.6625,120.9567,Philippines,PH,1608045841
Yola,Yola,9.2000,12.4833,Nigeria,NG,1566782065
Lobito,Lobito,-12.3597,13.5308,Angola,AO,1024128946
Saurimo,Saurimo,-9.6589,20.3934,Angola,AO,1024326839
Olinda,Olinda,-8.0089,-34.8550,Brazil,BR,1076784718
Esenler,Esenler,41.0794,28.8539,Turkey,TR,1792000667
Gujrat,Gujrat,32.5736,74.0789,Pakistan,PK,1586006990
Ad Dīwānīyah,Ad Diwaniyah,31.9892,44.9247,Iraq,IQ,1368864006
Piracicaba,Piracicaba,-22.7253,-47.6492,Brazil,BR,1076166252
Hancheng,Hancheng,35.4768,110.4419,China,CN,1156265838
Karamay,Karamay,45.5928,84.8711,China,CN,1156892128
Kākināda,Kakinada,16.9333,82.2167,India,IN,1356573609
Augusta,Augusta,33.3645,-82.0708,United States,US,1840029462
Bhīlwāra,Bhilwara,25.3500,74.6333,India,IN,1356077831
Tieli,Tieli,46.9838,128.0400,China,CN,1156769379
Cilegon,Cilegon,-6.0167,106.0167,Indonesia,ID,1360643410
Nizāmābād,Nizamabad,18.6704,78.1000,India,IN,1356242168
Bologna,Bologna,44.4939,11.3428,Italy,IT,1380202039
Boise,Boise,43.6007,-116.2312,United States,US,1840027142
Esenyurt,Esenyurt,41.0343,28.6801,Turkey,TR,1792759121
Tétouan,Tetouan,35.5667,-5.3667,Morocco,MA,1504709141
Aqtöbe,Aqtobe,50.2836,57.2297,Kazakhstan,KZ,1398602716
Oxnard,Oxnard,34.1963,-119.1815,United States,US,1840020474
Oyo,Oyo,7.8333,3.9333,Nigeria,NG,1566930579
Tarlac City,Tarlac City,15.4802,120.5979,Philippines,PH,1608237027
Okazaki,Okazaki,34.9500,137.1667,Japan,JP,1392862345
Cainta,Cainta,14.5667,121.1167,Philippines,PH,1608314665
Ḩā’il,Ha'il,27.5236,41.7001,Saudi Arabia,SA,1682249750
Yidu,Yidu,30.3880,111.4505,China,CN,1156230664
Lianzhou,Lianzhou,24.7868,112.3735,China,CN,1156020454
Florence,Florence,43.7714,11.2542,Italy,IT,1380726561
Christchurch,Christchurch,-43.5309,172.6365,New Zealand,NZ,1554377228
Nuevo Laredo,Nuevo Laredo,27.4861,-99.5069,Mexico,MX,1484597234
Scranton,Scranton,41.4044,-75.6649,United States,US,1840003389
Brno,Brno,49.1953,16.6083,Czechia,CZ,1203676514
London,London,42.9836,-81.2497,Canada,CA,1124469960
Novi Sad,Novi Sad,45.2644,19.8317,Serbia,RS,1688169087
Gusau,Gusau,12.1667,6.6667,Nigeria,NG,1566383682
Modesto,Modesto,37.6374,-121.0028,United States,US,1840020287
Pasto,Pasto,1.2100,-77.2747,Colombia,CO,1170320545
Kissimmee,Kissimmee,28.3042,-81.4164,United States,US,1840015109
Las Palmas,Las Palmas,28.1272,-15.4314,Spain,ES,1724501748
Ichinomiya,Ichinomiya,35.3039,136.8031,Japan,JP,1392379530
Pānihāti,Panihati,22.6900,88.3700,India,IN,1356118632
Huancayo,Huancayo,-12.0667,-75.2167,Peru,PE,1604249985
Aurora,Aurora,39.7087,-104.7273,United States,US,1840018794
Betim,Betim,-19.9678,-44.1978,Brazil,BR,1076953384
Sintra,Sintra,38.7974,-9.3904,Portugal,PT,1620848791
Parbhani,Parbhani,19.2704,76.7600,India,IN,1356632842
Usulután,Usulutan,13.3500,-88.4500,El Salvador,SV,1222984157
Youngstown,Youngstown,41.0993,-80.6463,United States,US,1840003563
Iquitos,Iquitos,-3.7333,-73.2500,Peru,PE,1604493809
Helixi,Helixi,30.6267,118.9861,China,CN,1156734041
